State,Library ID,Submission Year,Library Name,Street Address,City,Zip Code,Longitude,Latitude,State Code,County Code,County,County Population,Public Library Definition,Legal Basis,Administrative Structure,Interlibrary Relationship,Service Population,Service Population Without Duplicates,Central Libraries,Branch Libraries,Bookmobiles,MLS Librarians,Librarians,Employees,Total Staff,Local Government Operating Revenue,State Government Operating Revenue,Federal Government Operating Revenue,Other Operating Revenue,Total Operating Revenue,Salaries,Benefits,Total Staff Expenditures,Print Collection Expenditures,Digital Collection Expenditures,Other Collection Expenditures,Total Collection Expenditures,Other Operating Expenditures,Total Operating Expenditures,Local Government Capital Revenue,State Government Capital Revenue,Federal Government Capital Revenue,Other Capital Revenue,Total Capital Revenue,Total Capital Expenditures,Print Collection,Digital Collection,Audio Collection,Downloadable Audio,Physical Video,Downloadable Video,Local Cooperative Agreements,State Licensed Databases,Total Licensed Databases,Print Subscriptions,Hours Open,Library Visits,Reference Transactions,Registered Users,Circulation Transactions,Interlibrary Loans Provided,Interlibrary Loans Received,Library Programs,Children’s Programs,Young Adult Programs,Library Program Audience,Children’s Program Audience,Young Adult Program Audience,Public Internet Computers,Internet Computer Use,Wireless Internet Sessions,Start Date,End Date
AK,AK0001,2015,ANCHOR POINT PUBLIC LIBRARY,72551 MILO FRITZ AVENUE,ANCHOR POINT,99556,-151.8400068,59.7796042,2,122,KENAI PENINSULA,57477,Y,NP,SO,NO,2059,2059,1,0,0,0,0.68,0,0.68,0,18993,2821,7113,28927, , , ,3021,0,1009,4030, ,21282,0,0,0,12765,12765,0,16843,0,258,0,4159,0,0,49,49,7,1377,5379,550,396,11607,0,28,17,15,0,146,128,0,8,1675,0,07/01/2013,06/30/2014
AK,AK0002,2015,ANCHORAGE PUBLIC LIBRARY,3600 DENALI STREET,ANCHORAGE,99503,-149.876781,61.187677,2,20,ANCHORAGE,301010,Y,CO,MO,NO,300549,300549,1,4,0,20.6,29.1,49.8,78.9,10448481,56724,157386,183440,10846031,3214218,2853883,6068101,700747,198422,253111,1152280,3690161,10910542,0,1825000,0,0,1825000,0,481861,9773,28552,10496,63779,0,14,49,63,751,10208,942873,98871,119619,1886620,5359,2254,1435,906,412,68778,41259,9656,135,138689,0,01/01/2013,12/31/2013
AK,AK0003,2015,ANDERSON VILLAGE LIBRARY,101 FIRST STREET,ANDERSON,99744,-149.1786346,64.3435982,2,68,DENALI,1921,Y,CI,SO,NO,209,209,1,0,0,0,0.25,0.25,0.5,1000,6300,0,3429,10729, , , ,2206,425,877,3508, ,11449,0,0,0,0,0,0,15304,0,48,0,1091,0,0,49,49,1,480,874,300,161,1092,0,0,7,7,0,16,16,0,4,480,0,07/01/2013,06/30/2014
AK,AK0006,2015,KUSKOKWIM CONSORTIUM LIBRARY,420 CHIEF EDDIE HOFFMAN HIGHWAY,BETHEL,99559,-161.8029566,60.7857552,2,50,BETHEL,17868,Y,MJ,SO,NO,6241,6241,1,0,0,1,1,2,3,67600,6600,0,184800,259000,167806,72679,240485,8295,1635,4871,14801,5926,261212,0,0,0,0,0,0,34115,165,434,0,2345,0,138,49,187,50,2912,44980,1200,1500,12347,38,76,107,37,1,815,417,15,9,20000,0,07/01/2013,06/30/2014
AK,AK0007,2015,BIG LAKE PUBLIC LIBRARY,3140 SOUTH BIG LAKE ROAD,BIG LAKE,99652,-149.818403,61.546612,2,170,MATANUSKA-SUSITNA,97882,Y,CO,SO,NO,12793,12793,1,0,0,0,1,2,3,339574,6600,4979,0,351153,154145,119727,273872,21552,0,0,21552,52251,347675,0,0,0,0,0,0,23810,9773,1813,10496,2623,0,1,49,50,52,2548,43285,3469,3878,59630,118,147,296,118,11,6316,3893,1396,22,11301,5148,07/01/2013,06/30/2014
AK,AK0008,2015,CANTWELL COMMUNITY LIBRARY,1 SCHOOL ROAD,CANTWELL,99729,-148.757407,63.461051,2,68,DENALI,1921,Y,NP,SO,NO,182,182,1,0,0,0,1,0.5,1.5,4000,6600,7000,2640,20240, , , ,4846,0,637,5483, ,20720,0,0,0,0,0,0,14550,0,208,0,315,0,1,49,50,12,750,3000,380,170,5064,20,50,27,23,1,169,116,3,1,700,500,07/01/2013,06/30/2014
AK,AK0011,2015,CHINIAK PUBLIC LIBRARY,43318 SPRUCE WAY,CHINIAK,99615,-152.2325806,57.6122291,2,150,KODIAK ISLAND,13986,Y,NP,SO,NO,48,48,1,0,0,0,0,0.11,0.11,3000,25020,6560,44065,78645, , , ,4123,224,1801,6148, ,78540,0,0,0,0,0,0,4893,40,246,0,630,0,0,49,49,27,720,1029,72,55,1118,0,0,53,49,0,388,369,0,11,436,200,07/01/2013,06/30/2014
AK,AK0014,2015,COLD BAY PUBLIC LIBRARY,10 BARANOV ROAD,COLD BAY,99571,-162.7133916,55.206634,2,13,ALEUTIANS EAST,3360,N,NP,SO,NO,89,89,1,0,0,0,0,0,0,3300,18540,2642,50453,74935, , , ,2164,0,1774,3938, ,71103,0,0,0,0,0,0,7033,5,191,0,3298,0,0,49,49,21,480,1600,50,105,1939,0,0,32,32,0,306,306,0,6,427,0,07/01/2013,06/30/2014
AK,AK0015,2015,COOPER LANDING COMMUNITY LIBRARY,MILE .8 BEAN CREEK ROAD,COOPER LANDING,99572,-150.010519,60.487401,2,122,KENAI PENINSULA,57477,Y,NP,SO,NO,295,295,1,0,0,0,0.1,0,0.1,0,9787,5856,24156,39799, , , ,4788,0,500,5288, ,30060,0,0,0,0,0,0,3778,121,219,0,682,0,0,49,49,2,1092,3349,160,545,3210,0,79,23,8,1,1005,691,30,4,355,250,07/01/2013,06/30/2014
AK,AK0016,2015,CORDOVA PUBLIC LIBRARY,622 FIRST STREET,CORDOVA,99574,-145.766031,60.5479952,2,261,VALDEZ-CORDOVA,9488,Y,CI,SO,NO,2286,2286,1,0,0,0,3.75,1,4.75,472653,9047,11615,14929,508244,269032,109581,378613,9164,1500,352,11016,80356,469985,0,1000000,0,0,1000000,0,20459,9773,350,10496,1328,0,1,49,50,32,2652,22918,972,2073,13370,0,295,188,135,0,3054,2525,0,5,6671,4522,01/01/2013,12/31/2013
AK,AK0017,2015,CRAIG PUBLIC LIBRARY,504 THIRD STREET,CRAIG,99921,-133.1514564,55.4761261,2,198,PR WALES-OUTER KE,6396,Y,CI,SO,NO,1198,1198,1,0,0,0,1,0.5,1.5,132077,9107,14642,39346,195172, , , ,20605,1100,6560,28265, ,192281,14000,0,0,0,14000,14000,9981,10120,195,10496,2911,0,0,49,49,82,2355,18370,3027,2729,36231,0,94,403,211,50,3318,2138,214,4,4861,1698,07/01/2013,06/30/2014
AK,AK0018,2015,IPNATCHIAQ LIBRARY,59 MAIN STREET,DEERING,99736,0,0,2,188,NORTHWEST ARCTIC,7717,Y,CI,SO,NO,152,152,1,0,0,0,0.28,0,0.28,4836,4800,0,0,9636, , , ,100,0,0,100, ,9636,0,0,0,0,0,0,10738,31,425,0,282,0,0,0,0,476,550,300,0,32,112,0,0,17,17,0,30,30,0,0,0,0,07/01/2013,06/30/2014
AK,AK0019,2015,DELTA COMMUNITY LIBRARY,2291 DEBORAH STREET,DELTA JUNCTION,99737,-145.7334852,64.0465711,2,240,SE FAIRBANK,6931,Y,CI,SO,NO,1089,1089,1,0,0,0,1,1.75,2.75,181404,6600,1000,18024,207028,97298,46331,143629,8157,0,1000,9157,49411,202197,0,0,0,0,0,0,15911,9773,622,10496,3760,0,1,49,50,12,2600,46008,1600,6026,49098,135,137,152,109,6,4625,2502,83,8,7729,18500,07/01/2013,06/30/2014
AK,AK0020,2015,DILLINGHAM PUBLIC LIBRARY,306 D STREET WEST,DILLINGHAM,99576,-158.4667361,59.0402542,2,70,DILLINGHAM,4988,Y,CI,SO,NO,2431,2431,1,0,0,0,1,0.88,1.88,113873,10081,17268,43273,184495, , , ,8236,0,2806,11042, ,181014,0,0,0,0,0,0,23669,9773,1034,10496,4715,0,1,49,50,46,2080,40202,2704,2497,25322,0,122,125,77,37,2645,1612,926,6,8320,5672,07/01/2013,06/30/2014
AK,AK0021,2015,EAGLE PUBLIC LIBRARY,4TH & AMUNDSEN,EAGLE,99738,-141.201518,64.786619,2,240,SE FAIRBANK,6931,Y,NP,SO,NO,81,81,1,0,0,0,0.48,0.43,0.91,2000,12730,16961,59708,91399, , , ,3178,456,3485,7119, ,89818,0,0,0,0,0,0,10015,9773,725,10496,4349,0,2,49,51,39,713,2142,73,290,6126,0,20,16,8,1,133,76,32,7,1260,1835,07/01/2013,06/30/2014
AK,AK0023,2015,FAIRBANKS NORTH STAR BOROUGH PUBLIC LIBRARIES,1215 COWLES STREET,FAIRBANKS,99701,-147.738617,64.838318,2,90,FAIRBANKS NORTH STAR,99357,Y,CO,MO,NO,97972,97972,1,1,1,10,11,37.1,48.1,5701389,19800,165466,104697,5991352,3017054,1695305,4712359,364265,171313,104340,639918,619851,5972128,0,7209841,0,100000,7309841,8489523,325687,14828,21644,15981,32262,0,34,49,83,564,7128,316711,123188,56977,671976,5645,3664,891,742,8,33709,30360,573,31,60957,115030,07/01/2013,06/30/2014
AK,AK0025,2015,CHARLES EVANS COMMUNITY/SCHOOL LIBRARY,299 ANTOSKI ROAD,GALENA,99741,-156.8723252,64.7480237,2,290,YUKON-KOYUKUK,5547,Y,CI,SO,NO,449,449,1,0,0,0,0.38,0,0.38,18914,6600,6000,0,31514, , , ,3311,0,199,3510, ,32457,0,0,0,0,0,0,9549,0,0,0,768,0,0,49,49,44,720,3720,360,400,6168,0,72,198,198,0,703,703,0,2,480,0,07/01/2013,06/30/2014
AK,AK0027,2015,COPPER VALLEY COMMUNITY LIBRARY,MILE 186 GLENN HIGHWAY,GLENNALLEN,99588,-146.050333,62.198412,2,261,VALDEZ-CORDOVA,9488,Y,NP,SO,NO,473,473,1,0,0,0,0,0.18,0.18,0,8626,7280,53766,69672, , , ,5045,699,599,6343, ,39552,0,28716,0,0,28716,0,18531,16,708,0,4209,0,1,49,50,20,1582,6377,2640,790,13763,0,44,35,6,8,492,125,214,6,3000,4553,07/01/2013,06/30/2014
AK,AK0028,2015,GUSTAVUS PUBLIC LIBRARY,14 GUSTAVUS ROAD,GUSTAVUS,99826,-135.726709,58.4130833,2,105,SKAGWAY-ANGOON,2082,Y,CI,SO,NO,516,516,1,0,0,0,1.07,0,1.07,46676,6918,4698,16355,74647, , , ,6381,600,0,6981, ,74718,21866,0,0,0,21866,21866,12262,9773,112,10496,1485,0,0,49,49,18,1248,10311,250,750,9374,0,49,267,110,0,3153,1859,0,5,1814,1346,07/01/2013,06/30/2014
AK,AK0029,2015,HAINES BOROUGH PUBLIC LIBRARY,111 THIRD AVENUE SOUTH,HAINES,99827,-135.4480632,59.232844,2,100,HAINES,2566,Y,CO,SO,NO,2537,2537,1,0,0,0,2.7,2.6,5.3,371114,16052,44897,52365,484428,239827,115955,355782,14426,1500,2250,18176,104115,478073,0,0,0,0,0,0,32415,9773,2623,10496,4889,0,0,49,49,135,3016,87933,9809,2316,103542,174,135,592,467,9,7246,5399,72,12,19371,15245,07/01/2013,06/30/2014
AK,AK0030,2015,TRI-VALLEY COMMUNITY LIBRARY,400 SUNTRANA STREET,HEALY,99743,-149.0170333,63.8734912,2,68,DENALI,1921,Y,NP,SO,NO,1104,1104,1,0,0,0,0.6,0,0.6,10279,6600,1000,10958,28837, , , ,6281,1500,467,8248, ,34113,0,0,0,0,0,0,27668,9773,1005,10496,2071,0,0,49,49,19,1000,5532,500,969,14931,5,159,75,33,2,1715,1093,11,9,757,332,07/01/2013,06/30/2014
AK,AK0031,2015,HOLLIS PUBLIC LIBRARY,NO. 1 HOLLIS CHILKAT ROAD,HOLLIS,99950,-133.075907,55.781881,2,198,PR WALES-OUTER KE,6396,Y,NP,SO,NO,94,94,1,0,0,0,0,0.18,0.18,0,8237,11101,28571,47909, , , ,1766,0,1463,3229, ,47861,0,0,0,0,0,0,18050,11,370,0,620,0,0,49,49,18,1100,2000,600,300,1514,0,0,49,29,2,353,230,6,6,592,225,07/01/2013,06/30/2014
AK,AK0032,2015,HOMER PUBLIC LIBRARY,500 HAZEL AVENUE,HOMER,99603,-151.544299,59.640502,2,122,KENAI PENINSULA,57477,Y,CI,SO,NO,5099,5099,1,0,0,2,2,6.38,8.38,864070,8600,3500,39692,915862,336999,238922,575921,64200,6409,12142,82751,140541,799213,0,0,0,0,0,0,39354,9773,2097,10496,2451,0,6,49,55,145,2617,124102,12532,10193,118157,291,432,331,183,6,6314,4693,115,35,29118,18757,01/01/2013,12/31/2013
AK,AK0033,2015,HOPE COMMUNITY LIBRARY,18487 A AVENUE,HOPE,99605,-149.445094,60.109417,2,122,KENAI PENINSULA,57477,N,NP,SO,NO,205,205,1,0,0,0,0,0,0,0,14513,0,3102,17615, , , ,3272,0,0,3272, ,15339,0,0,0,0,0,0,5663,0,199,0,1208,0,0,49,49,5,960,1632,400,172,1360,0,0,17,13,0,169,103,0,1,204,182,07/01/2013,06/30/2014
AK,AK0035,2015,JUNEAU PUBLIC LIBRARIES,292 MARINE WAY,JUNEAU,99801,-134.4036617,58.2984755,2,110,JUNEAU,32406,Y,CO,MO,NO,33026,33026,1,2,0,4.75,4.75,15.81,20.56,2224292,19800,108700,22438,2375230,987236,689201,1676437,133586,17435,15800,166821,433212,2276470,0,0,0,0,0,0,120886,9773,5204,10496,5677,0,11,49,60,427,7584,294448,24881,24305,180382,11623,11969,594,368,67,16416,13419,1200,59,75097,60000,07/01/2013,06/30/2014
AK,AK0037,2015,KASILOF PUBLIC LIBRARY,58231 STERLING HIGHWAY,KASILOF,99610,-151.2603381,60.3125872,2,122,KENAI PENINSULA,57477,Y,NP,SO,NO,574,574,1,0,0,0,0.29,0.17,0.46,8700,8200,9183,5398,31481, , , ,3177,0,135,3312, ,34485,0,0,0,0,0,0,12904,0,164,0,235,0,0,49,49,24,750,5000,350,387,5188,0,15,11,11,0,110,110,0,7,1288,1296,07/01/2013,06/30/2014
AK,AK0038,2015,KENAI COMMUNITY LIBRARY,163 MAIN STREET LOOP,KENAI,99611,-151.2442311,60.5585732,2,122,KENAI PENINSULA,57477,Y,CI,SO,NO,7167,7167,1,0,0,2,3,5.1,8.1,831585,6600,9273,33476,880934,382310,166344,548654,60721,6549,4476,71746,192693,813093,0,0,0,0,0,0,76934,9773,1762,10496,3820,0,1,49,50,121,3006,101084,1005,12196,130316,338,382,317,148,35,4567,3735,105,31,17043,87360,07/01/2013,06/30/2014
AK,AK0039,2015,KETCHIKAN PUBLIC LIBRARY,1110 COPPER RIDGE LANE,KETCHIKAN,99901,-131.650729,55.352711,2,130,KETCHIKAN GATEWAY,13787,Y,CO,SO,NO,13825,13825,1,0,0,2.96,2.96,4.75,7.71,1371390,6500,14636,168844,1561370,532257,306783,839040,79595,2349,22537,104481,134083,1077604,0,0,0,0,0,0,60006,9707,5109,10496,6738,0,4,49,53,157,2916,97656,11887,9076,167712,319,213,433,280,87,9055,6435,1696,26,4401,6000,01/01/2013,12/31/2013
AK,AK0040,2015,KODIAK PUBLIC LIBRARY,612 EGAN WAY,KODIAK,99615,0,0,2,150,KODIAK ISLAND,13986,Y,CI,SO,NO,13402,13402,1,0,0,1,1,6,7,847134,8500,0,17840,873474,336256,312549,648805,28584,30000,5850,64434,123137,836376,500000,6900000,0,145000,7545000,3211657,73278,9773,2634,10496,2479,0,0,49,49,128,3047,150000,3018,10187,62477,825,217,218,183,0,2800,1642,0,34,68000,9100,07/01/2013,06/30/2014
AK,AK0041,2015,CHUKCHI CONSORTIUM LIBRARY,604 THIRD STREET,KOTZEBUE,99752,-162.5928328,66.8970613,2,188,NORTHWEST ARCTIC,7717,Y,MJ,MO,NO,4029,4029,1,1,0,1,2.25,1,3.25,129370,13200,8153,135201,285924,123345,43898,167243,14736,0,4358,19094,97094,283431,0,0,0,0,0,0,23488,0,270,0,2392,0,210,49,259,93,2912,31300,2600,958,11406,35,181,207,143,64,2162,1626,536,18,7900,3000,07/01/2013,06/30/2014
AK,AK0044,2015,MCGRATH COMMUNITY LIBRARY,249 F STREET,MCGRATH,99627,-160.065507,62.909259,2,290,YUKON-KOYUKUK,5547,Y,NP,SO,NO,315,315,1,0,0,0,0.64,0,0.64,0,19192,7058,56292,82542, , , ,3022,868,0,3890, ,75616,0,0,0,0,0,0,14124,5,13,0,930,0,1,49,50,18,1332,4529,338,270,1444,0,36,51,31,6,1283,617,395,7,1514,1823,07/01/2013,06/30/2014
AK,AK0046,2015,CENTENNIAL LIBRARY,4TH & MILTON STREET,METLAKATLA,99926,-131.575207,55.128483,2,198,PR WALES-OUTER KE,6396,Y,NL,SO,NO,1480,1480,1,0,0,0,1,0,1,59167,6600,3622,0,69389, , , ,5656,0,432,6088, ,68248,0,0,0,0,0,0,12802,9773,135,10496,143,0,0,49,49,14,1000,3508,376,350,1363,0,50,71,70,1,727,725,2,10,2018,401,07/01/2013,06/30/2014
AK,AK0047,2015,MARTIN MONSEN REGIONAL LIBRARY,101 MAIN STREET,NAKNEK,99633,-156.6675022,58.6820703,2,60,BRISTOL BAY,957,Y,CO,MO,NO,942,942,1,1,0,0,1,2.11,3.11,297583,13200,0,1157,311940,141927,86878,228805,12566,0,2627,15193,32197,276195,0,0,0,0,0,0,13383,0,282,0,3207,0,0,49,49,22,3224,10247,196,561,6401,0,51,75,25,15,764,258,189,9,3526,2699,07/01/2013,06/30/2014
AK,AK0048,2015,NENANA PUBLIC LIBRARY,106 EAST SECOND STREET,NENANA,99760,-149.0928496,64.5624425,2,290,YUKON-KOYUKUK,5547,Y,CI,SO,NO,396,396,1,0,0,0,0.87,0.25,1.12,81632,8208,15275,8795,113910, , , ,5900,52,1545,7497, ,106622,0,0,0,0,0,0,7919,266,873,0,1695,0,0,49,49,10,1664,6656,780,1095,8984,0,334,83,37,35,984,353,604,7,1664,1040,07/01/2013,06/30/2014
AK,AK0051,2015,NINILCHIK COMMUNITY LIBRARY,15850 STERLING HIGHWAY,NINILCHIK,99639,-151.6922728,60.0277445,2,122,KENAI PENINSULA,57477,Y,NP,SO,NO,847,847,1,0,0,0,0.2,0.15,0.35,4950,7688,11101,3734,27473, , , ,4453,0,486,4939, ,30008,0,0,0,0,0,0,10301,9773,250,10496,2048,0,0,49,49,5,1456,5500,250,261,7063,0,183,40,26,1,158,33,5,6,1074,316,07/01/2013,06/30/2014
AK,AK0052,2015,KEGOAYAH KOZGA LIBRARY,223 FRONT STREET,NOME,99762,-165.4054974,64.4973222,2,180,NOME,9817,Y,CI,SO,NO,3721,3721,1,0,0,0,1,2,3,276346,17104,13024,42908,349382,135505,96754,232259,17193,0,688,17881,90990,341130,0,0,0,0,0,0,20748,0,267,0,1272,0,0,49,49,37,2244,27000,1700,2168,17856,15,68,157,135,3,3149,2989,35,8,10785,3000,07/01/2013,06/30/2014
AK,AK0053,2015,NORTHWAY COMMUNITY/SCHOOL LIBRARY,496 NORTHWAY ROAD,NORTHWAY,99764,-141.9362156,62.95927,2,240,SE FAIRBANK,6931,Y,NP,SO,NO,66,66,1,0,0,0,0.25,0,0.25,19850,6600,95,0,26545, , , ,2018,0,600,2618, ,25188,0,0,0,0,0,0,4391,0,193,0,342,0,0,49,49,14,300,400,34,66,633,0,0,2,1,0,33,18,0,1,250,0,07/01/2013,06/30/2014
AK,AK0055,2015,PALMER PUBLIC LIBRARY,655 SOUTH VALLEY WAY,PALMER,99645,-149.113048,61.599967,2,170,MATANUSKA-SUSITNA,97882,Y,CO,SO,NO,26162,26162,1,0,0,0,1,6.25,7.25,642969,6600,3000,6199,658768,263081,176781,439862,39150,0,0,39150,130257,609269,0,0,0,0,0,0,61371,9773,2574,10496,3457,0,0,49,49,42,2288,91387,11528,8460,133023,151,207,366,288,26,11711,10762,366,29,13617,9599,07/01/2013,06/30/2014
AK,AK0056,2015,PELICAN PUBLIC LIBRARY,166 SALMON WAY,PELICAN,99832,-136.2239227,57.9587365,2,105,SKAGWAY-ANGOON,2082,Y,CI,SO,NO,75,75,1,0,0,0,0.25,0.18,0.43,28792,7428,1000,26858,64078, , , ,1611,0,2662,4273, ,69371,0,0,0,0,0,0,9974,0,300,0,2705,0,0,49,49,38,728,3956,130,342,4330,0,0,146,97,49,969,736,233,3,3276,0,07/01/2013,06/30/2014
AK,AK0057,2015,PETERSBURG PUBLIC LIBRARY,14 SOUTH SECOND STREET,PETERSBURG,99833,0,0,2,195,WRANGELL-PETERSBU,3160,Y,CI,SO,NO,3209,3209,1,0,0,1,1,3.3,4.3,367068,6600,27131,11360,412159,178923,57004,235927,22034,1500,18213,41747,132910,410584,0,116097,200000,80000,396097,1046540,26537,9773,1684,10496,10777,0,0,49,49,118,2408,73000,5300,3346,84627,1,166,193,109,55,3134,1361,422,23,6700,8000,07/01/2013,06/30/2014
AK,AK0058,2015,JESSIE WAKEFIELD MEMORIAL LIBRARY,207 SPRUCE DRIVE,PORT LIONS,99550,-152.883684,57.86639,2,150,KODIAK ISLAND,13986,Y,CI,SO,NO,176,176,1,0,0,0,0.58,0,0.58,13382,24720,10721,44815,93638, , , ,1900,0,1175,3075, ,81755,0,0,0,0,0,0,9573,50,233,44,1262,24,0,49,49,23,1196,3154,464,170,2708,0,268,196,129,31,682,510,87,6,1523,600,07/01/2013,06/30/2014
AK,AK0061,2015,ST. PAUL ISLAND SCHOOL/COMMUNITY LIBRARY,930 TOLSTOI BOULEVARD,ST. PAUL,99660,-170.2800724,57.1209898,2,16,ALEUTIANS WEST,5750,Y,MJ,SO,NO,436,436,1,0,0,0,0.35,0.35,0.7,24441,6600,5290,0,36331, , , ,3975,0,0,3975, ,36331,0,0,0,0,0,0,13392,6,49,0,792,0,2,49,51,44,960,3200,500,323,2964,0,0,45,36,9,331,195,136,14,1285,1600,07/01/2013,06/30/2014
AK,AK0064,2015,SELDOVIA PUBLIC LIBRARY,260 SELDOVIA STREET,SELDOVIA,99663,-151.7145869,59.4386818,2,122,KENAI PENINSULA,57477,Y,NP,SO,NO,233,233,1,0,0,0,0,0.18,0.18,6333,7484,9334,7397,30548, , , ,4327,0,1391,5718, ,29415,0,0,0,0,0,0,8830,0,372,0,2174,0,0,49,49,17,1029,5138,137,355,6392,0,21,75,43,6,1071,327,352,9,893,696,07/01/2013,06/30/2014
AK,AK0065,2015,SEWARD COMMUNITY LIBRARY MUSEUM,239 6TH AVENUE,SEWARD,99664,0,0,2,122,KENAI PENINSULA,57477,Y,CI,SO,NO,2768,2768,1,0,0,1,2,2.5,4.5,450194,6600,6988,36250,500032,189322,144562,333884,24680,0,5087,29767,68633,432284,0,131866,300000,0,431866,235950,28734,9773,1098,10496,2463,875,5,49,54,88,2424,77300,2400,7639,20275,105,453,201,131,13,4568,3137,259,10,14241,8031,01/01/2013,12/31/2013
AK,AK0067,2015,KETTLESON MEMORIAL LIBRARY,320 HARBOR DRIVE,SITKA,99835,-135.3345211,57.0495852,2,220,SITKA,8900,Y,CO,SO,NO,9061,9061,1,0,0,2.3,3,3.8,6.8,873041,8600,6642,1943,890226,333931,220680,554611,72500,4100,15500,92100,235860,882571,0,0,0,0,0,0,62664,9773,4485,10496,5228,0,2,49,51,247,3692,149293,5652,11843,125698,989,1006,299,195,23,8881,6656,445,12,32619,0,07/01/2013,06/30/2014
AK,AK0068,2015,SKAGWAY PUBLIC LIBRARY,769 STATE STREET,SKAGWAY,99840,-135.3080232,59.4606145,2,230,SKAGWAY-ANGOON,1036,Y,CI,SO,NO,1031,1031,1,0,0,0,1,0.8,1.8,211141,6600,1000,1376,220117, , , ,8376,0,807,9183, ,220094,0,0,0,0,0,0,9400,15,223,0,1300,0,0,49,49,30,2264,12064,315,1252,14482,85,183,92,60,5,620,446,17,5,7195,0,07/01/2013,06/30/2014
AK,AK0069,2015,JOYCE K. CARVER MEMORIAL SOLDOTNA PUBLIC LIBRARY,235 NORTH BINKLEY ST.,SOLDOTNA,99669,0,0,2,122,KENAI PENINSULA,57477,Y,CI,SO,NO,4311,4311,1,0,0,2,3,2.75,5.75,626857,6600,7631,24334,665422,238708,88731,327439,84439,1600,6075,92114,105174,524727,664,914873,0,421690,1337227,1337227,44009,9773,3354,10496,1520,0,0,49,49,116,2600,64443,6214,10384,70735,47,270,149,117,21,3169,2568,138,16,8171,10000,07/01/2013,06/30/2014
AK,AK0070,2015,SUTTON PUBLIC LIBRARY/COMMUNITY RESOURCE CENTER,11301 NORTH CHICKALOON WAY,SUTTON,99674,-148.977161,61.705952,2,170,MATANUSKA-SUSITNA,97882,Y,CO,SO,NO,3884,3884,1,0,0,0,1,0.75,1.75,307944,7712,923,0,316579, , , ,14960,0,0,14960, ,316577,0,0,0,0,0,0,14209,9773,789,10496,1419,0,1,49,50,36,2132,21434,573,1044,16180,32,172,299,235,39,4345,3451,492,7,4643,2649,07/01/2013,06/30/2014
AK,AK0072,2015,TALKEETNA PUBLIC LIBRARY,23151 SOUTH TALKEETNA SPUR ROAD,TALKEETNA,99676,-150.1080973,62.3215917,2,170,MATANUSKA-SUSITNA,97882,Y,CO,SO,NO,10211,10211,1,0,0,0,1.88,0.7,2.58,289554,6600,2500,0,298654,119702,100247,219949,30306,0,0,30306,47398,297653,1290000,2660000,0,530000,4480000,3978490,16380,9773,1333,10528,3158,0,1,49,50,43,2184,36990,2975,3938,61752,179,395,131,60,19,2370,1171,274,11,8555,5222,07/01/2013,06/30/2014
AK,AK0073,2015,TANANA COMMUNITY/SCHOOL LIBRARY,89 FRONT STREET,TANANA,99777,-151.957314,65.329839,2,290,YUKON-KOYUKUK,5547,Y,NP,SO,NO,229,229,1,0,0,0,0.5,0,0.5,5000,12649,2821,56638,77108, , , ,1950,0,1550,3500, ,78651,0,0,0,0,0,0,9330,0,267,0,480,0,0,49,49,28,420,1360,270,229,1314,0,41,46,20,14,140,75,40,3,400,200,07/01/2013,06/30/2014
AK,AK0074,2015,DERMOTT O'TOOLE MEMORIAL LIBRARY,707 WEST TENAKEE AVENUE,TENAKEE SPRINGS,99841,-135.2169506,57.7800673,2,105,SKAGWAY-ANGOON,2082,Y,CI,SO,NO,128,128,1,0,0,0,0.25,0,0.25,10500,8460,10365,24208,53533, , , ,2694,0,2200,4894, ,44764,0,0,0,0,0,0,6676,73,0,1,1115,0,0,49,49,1,800,2570,210,167,3128,0,19,41,24,0,615,360,0,8,318,0,07/01/2013,06/30/2014
AK,AK0075,2015,TOK COMMUNITY LIBRARY,MILE 1314 ALASKA HIGHWAY,TOK,99780,-142.214893,63.910262,2,240,SE FAIRBANK,6931,N,NP,SO,NO,1246,1246,1,0,0,0,0,0,0,0,7621,2821,25747,36189, , , ,3565,0,663,4228, ,33519,0,0,0,0,0,1853,11198,2,642,0,1494,0,0,49,49,10,1656,4028,284,348,3687,0,36,5,5,0,132,132,0,4,1719,0,07/01/2013,06/30/2014
AK,AK0077,2015,VALDEZ CONSORTIUM LIBRARY,212 FAIRBANKS DRIVE,VALDEZ,99686,-146.353396,61.129882,2,261,VALDEZ-CORDOVA,9488,Y,MJ,SO,NO,4032,4032,1,0,0,1,1,2.78,3.78,445386,6600,2086,26445,480517,194701,138368,333069,21313,3000,2556,26869,82888,442826,0,0,0,0,0,0,49864,9773,6731,10496,4749,0,239,49,288,103,2860,32859,20100,757,21926,197,68,77,70,2,1970,1647,34,10,6562,8000,01/01/2013,12/31/2013
AK,AK0078,2015,WASILLA PUBLIC LIBRARY,391 NORTH MAIN STREET,WASILLA,99654,-149.441482,61.583125,2,170,MATANUSKA-SUSITNA,97882,Y,CO,SO,NO,32550,32550,1,0,0,3,3,6.5,9.5,1019328,6600,7161,38889,1071978,473136,394893,868029,56809,3479,9205,69493,134955,1072477,2379670,0,0,0,2379670,0,52147,9720,2050,10625,2971,0,2,49,51,129,1975,83230,4316,10212,160580,581,452,201,187,10,8731,8252,146,7,14989,2483,07/01/2013,06/30/2014
AK,AK0080,2015,WILLOW PUBLIC LIBRARY,23557 WEST WILLOW COMMUNITY CENTER,WILLOW,99688,-150.851603,61.33519,2,170,MATANUSKA-SUSITNA,97882,Y,CO,SO,NO,6979,6979,1,0,0,0,1.88,0.51,2.39,277720,6600,699,0,285019,118332,96162,214494,18660,0,0,18660,51866,285020,0,0,0,0,0,0,24068,9773,1563,10496,2766,0,1,49,50,54,2300,43043,1161,2077,31283,305,367,68,49,0,1661,1269,0,12,5554,8408,07/01/2013,06/30/2014
AK,AK0081,2015,IRENE INGLE PUBLIC LIBRARY,124 SECOND STREET,WRANGELL,99929,-132.386938,56.4730653,2,275,WRANGELL,2364,Y,CO,SO,NO,2406,2406,1,0,0,0,1,1.5,2.5,272350,16524,6000,14844,309718,126189,98319,224508,25060,1500,0,26560,58650,309718,0,0,0,0,0,0,34260,9773,1184,10496,2265,0,2,49,51,68,1858,29799,6020,1396,39083,0,272,66,45,9,1557,932,110,10,3710,3711,07/01/2013,06/30/2014
AK,AK0082,2015,AKIAK SCHOOL/COMMUNITY LIBRARY,1 KILBUCK ROAD,AKIAK,99552,-161.228344,60.917795,2,50,BETHEL,17868,Y,NL,SO,NO,389,389,1,0,0,0,0.25,0.25,0.5,30000,6600,0,0,36600, , , ,3849,0,0,3849, ,47600,0,0,0,0,0,0,8969,0,90,0,500,0,0,49,49,30,480,6000,365,314,4563,3,5,210,208,1,2224,2207,8,6,1750,0,07/01/2013,06/30/2014
AK,AK0085,2015,FRANCES KIBBLE KENNY LAKE PUBLIC LIBRARY,MILE 5 EDGERTON HIGHWAY,KENNY LAKE,99573,-144.043021,61.709958,2,261,VALDEZ-CORDOVA,9488,N,NP,SO,NO,307,307,1,0,0,0,0,0,0,0,6600,0,7441,14041, , , ,2728,0,1867,4595, ,17835,0,0,0,0,0,0,7670,0,614,0,2814,0,0,49,49,5,785,2541,86,482,2587,0,49,60,48,1,771,576,25,4,422,0,07/01/2013,06/30/2014
AK,AK0087,2015,KOYUK PUBLIC LIBRARY,3RD AND BIRCH STREET,KOYUK,99753,-161.141837,64.93803,2,180,NOME,9817,Y,CI,SO,NO,321,321,1,0,0,0,0.25,0.19,0.44,13384,12241,7280,56596,89501, , , ,2200,500,182,2882, ,89962,0,0,0,0,0,0,3280,0,50,15,50,0,0,49,49,10,520,2420,280,321,3758,0,0,12,12,0,160,160,0,3,850,180,07/01/2013,06/30/2014
AK,AK0091,2015,TULUKSAK SCHOOL/COMMUNITY LIBRARY,1 PHILLIP STREET,TULUKSAK,99679,-160.952397,61.107769,2,50,BETHEL,17868,Y,NL,SO,NO,372,372,1,0,0,0,0.25,0,0.25,7000,6600,0,0,13600, , , ,2700,0,500,3200, ,11500,0,0,0,0,0,0,7142,0,136,0,509,0,0,49,49,20,1300,3950,350,300,4188,10,2,8,6,1,385,310,5,7,1775,1100,07/01/2013,06/30/2014
AK,AK0094,2015,TUZZY CONSORTIUM LIBRARY,5421 NORTH STAR STREET,BARROW,99723,-156.7534146,71.2984603,2,185,NORTH SLOPE,9703,Y,MJ,MO,NO,7110,7110,1,7,0,2,2,8,10,545580,185155,89033,339360,1159128,326565,124643,451208,38204,16573,9859,64636,544294,1060138,0,0,0,0,0,0,51932,12710,1653,10496,8321,0,10,49,59,152,6528,60672,1998,2841,33305,53,130,256,199,22,6579,5643,504,35,22451,2368,07/01/2013,06/30/2014
AK,AK0095,2015,AKIACHAK SCHOOL/COMMUNITY LIBRARY,1 MAIN STREET,AKIACHAK,99551,-161.825068,59.012567,2,50,BETHEL,17868,Y,NL,SO,NO,671,671,1,0,0,0,0.2,0,0.2,52410,6600,0,0,59010, , , ,4238,1615,400,6253, ,45828,0,0,0,0,0,0,13795,0,522,0,506,0,0,49,49,10,480,14000,395,619,8939,0,50,254,230,12,5807,4710,912,3,4097,0,07/01/2013,06/30/2014
AK,AK0097,2015,ESTHER GREENWALD LIBRARY,366 GARTEENI HIGHWAY,HOONAH,99829,-135.4385608,58.1082582,2,105,SKAGWAY-ANGOON,2082,Y,CI,SO,NO,787,787,1,0,0,0,0.66,0.24,0.9,53313,8426,9821,14570,86130, , , ,3891,2124,181,6196, ,96438,0,0,0,0,0,0,18588,9773,86,10496,941,0,1,49,50,17,1440,11612,598,677,4849,0,28,387,272,106,5020,3824,1160,14,7612,8640,07/01/2013,06/30/2014
AK,AK0099,2015,MOOSE PASS PUBLIC LIBRARY,38100 DEPOT ROAD,MOOSE PASS,99631,-149.3684553,60.4873228,2,122,KENAI PENINSULA,57477,Y,NP,SO,NO,234,234,1,0,0,0,0,0.18,0.18,0,8504,10922,7303,26729, , , ,6388,685,1181,8254, ,31201,0,0,0,0,0,0,6773,9773,65,10496,907,0,0,49,49,5,1352,1984,142,250,2637,0,279,10,4,4,109,80,27,3,419,129,07/01/2013,06/30/2014
AK,AK0100,2015,TOP OF THE KUSKOKWIM COMMUNITY/SCHOOL LIBRARY,9127 MAIN STREET,NIKOLAI,99691,-154.377316,63.010723,2,290,YUKON-KOYUKUK,5547,Y,CI,SO,NO,83,83,1,0,0,0,0.25,0,0.25,3000,6600,7933,0,17533, , , ,4750,0,750,5500, ,16600,0,0,0,0,0,0,5170,48,190,0,120,0,0,49,49,14,480,1751,220,35,2155,0,0,30,25,0,306,126,0,6,550,360,07/01/2013,06/30/2014
AK,AK0101,2015,SAND POINT COMMUNITY/SCHOOL LIBRARY,123 RED COVE ROAD,SAND POINT,99661,-160.4813624,55.3533513,2,13,ALEUTIANS EAST,3360,Y,CI,SO,NO,946,946,1,0,0,0,0.38,0,0.38,47200,7798,2973,11500,69471, , , ,18050,270,2350,20670, ,66553,0,0,0,0,0,0,19500,17,0,0,613,0,0,49,49,40,780,19360,1260,225,14342,2,12,182,114,53,1531,1004,450,29,9516,104,07/01/2013,06/30/2014
AK,AK0102,2015,EGEGIK VILLAGE LIBRARY,289 AIRPORT ROAD,EGEGIK,99579,-157.345234,58.210776,2,164,LAKE AND PENINSULA,1631,Y,NL,SO,NO,106,106,1,0,0,0,0.25,0.24,0.49,0,18780,10793,49920,79493, , , ,1531,98,1938,3567, ,78749,0,0,0,0,0,0,3283,25,39,0,1253,0,0,49,49,24,1008,550,104,106,1131,0,0,7,6,0,19,14,0,1,300,75,07/01/2013,06/30/2014
AK,AK0103,2015,TRAPPER CREEK PUBLIC LIBRARY,8901 EAST DEVONSHIRE DRIVE,TRAPPER CREEK,99683,-150.246221,62.3072213,2,170,MATANUSKA-SUSITNA,97882,Y,CO,SO,NO,5484,5484,1,0,0,0,0.75,0.24,0.99,153323,6600,0,0,159923, , , ,15059,0,0,15059, ,159922,0,0,0,0,0,0,13115,9773,1406,10496,2566,0,1,49,50,35,1270,6170,642,2109,14997,3,39,121,80,10,1141,811,17,8,2146,1516,07/01/2013,06/30/2014
AK,AK0104,2015,HOLY CROSS COMMUNITY/SCHOOL LIBRARY,210 MAIN STREET,HOLY CROSS,99602,-160.023886,62.057258,2,290,YUKON-KOYUKUK,5547,Y,CI,SO,NO,177,177,1,0,0,0,0.25,0,0.25,3000,19080,8000,49920,80000, , , ,4750,0,750,5500, ,78500,0,0,0,0,0,0,5990,0,0,0,410,20,0,49,49,20,480,3000,240,177,1210,0,0,128,128,0,404,404,0,6,2000,0,07/01/2013,06/30/2014
AK,AK0113,2015,OUZINKIE TRIBAL MEDIA CENTER,216 THIRD STREET,OUZINKIE,99644,-152.4946421,57.9225351,2,150,KODIAK ISLAND,13986,Y,NL,SO,NO,171,171,1,0,0,0,0.85,0,0.85,20370,24840,13244,43680,102134, , , ,1790,0,3713,5503, ,101214,0,0,0,0,0,0,2295,0,0,15,751,0,0,49,49,20,2184,4600,320,55,1770,0,21,38,27,6,128,106,15,11,3000,0,07/01/2013,06/30/2014
AK,AK0114,2015,ST. GEORGE ISLAND SCHOOL/COMMUNITY LIBRARY,NO. 1 ELEMENTARY SCHOOL ROAD,ST. GEORGE,99591,-169.616909,56.581679,2,16,ALEUTIANS WEST,5750,Y,MJ,SO,NO,92,92,1,0,0,0,0.35,0.35,0.7,27061,6600,5290,0,38951, , , ,3529,0,0,3529, ,38950,0,0,0,0,0,0,5228,210,0,0,117,0,0,49,49,18,672,680,16,34,195,0,0,108,69,36,572,442,72,19,252,64,07/01/2013,06/30/2014
AK,AK0115,2015,UNALASKA PUBLIC LIBRARY,64 ELEANOR DRIVE,UNALASKA,99685,-166.5295673,53.8704886,2,16,ALEUTIANS WEST,5750,Y,CI,SO,NO,4689,4689,1,0,0,1,1,4,5,665584,27374,16086,54173,763217,276644,191271,467915,26157,6529,9336,42022,216167,726104,0,0,0,0,0,0,40713,9773,881,10496,20069,0,0,49,49,134,3484,113205,2452,7249,212781,60,1535,222,169,13,6626,3796,490,24,50456,19521,07/01/2013,06/30/2014
AK,AK0116,2015,ANIAK PUBLIC LIBRARY,270 RIVERFRONT DRIVE,ANIAK,99557,-156.70387,61.496996,2,50,BETHEL,17868,Y,CI,SO,NO,533,533,1,0,0,0,0.5,0,0.5,18859,17136,10921,96933,143849, , , ,802,266,2563,3631, ,135151,0,0,0,0,0,0,3938,55,0,0,485,0,0,49,49,9,1000,3100,250,533,2204,0,5,10,10,0,30,30,0,6,1750,500,07/01/2013,06/30/2014
AK,AK0117,2015,HYDER PUBLIC LIBRARY,50 MAIN STREET,HYDER,99923,-130.054261,55.9512325,2,198,PR WALES-OUTER,6396,Y,NP,SO,NO,91,91,1,0,0,0,0,0.18,0.18,0,18696,10101,50374,79171, , , ,2072,372,1480,3924, ,76281,0,0,0,0,0,0,8317,0,3,0,1256,0,0,49,49,40,1028,1563,60,91,1664,0,0,100,62,8,550,124,142,6,726,652,07/01/2013,06/30/2014
AK,AK0120,2015,INNOKO RIVER COMMUNITY/SCHOOL AND TRIBAL LIBRARY,101 PINE STREET,SHAGELUK,99665,-159.837595,62.682486,2,290,YUKON-KOYUKUK,5547,Y,CI,SO,NO,79,79,1,0,0,0,0.5,0,0.5,3000,19080,7000,49920,79000, , , ,4750,0,750,5500, ,78500,0,0,0,0,0,0,3920,15,64,0,190,12,0,49,49,14,1000,1460,300,79,403,0,0,45,31,4,318,209,71,3,800,600,07/01/2013,06/30/2014
AK,AK0121,2015,BLACKWELL COMMUNITY/SCHOOL LIBRARY,100 WHITE SPRUCE TRAIL,ANVIK,99558,-159.72838,63.235938,2,290,YUKON-KOYUKUK,5547,Y,CI,SO,NO,79,79,1,0,0,0,0.25,0,0.25,3000,25020,7000,85633,120653, , , ,2047,0,304,2351, ,113811,0,0,0,0,0,0,3135,110,80,40,83,0,0,49,49,1,300,420,100,75,440,0,0,24,17,7,191,170,21,6,120,0,07/01/2013,06/30/2014
AK,AK0122,2015,DAVID LOUIS COMMUNITY/SCHOOL LIBRARY,DAVID LOUIS SCHOOL BUILDING,GRAYLING,99590,-159.676935,64.075022,2,290,YUKON-KOYUKUK,5547,Y,CI,SO,NO,191,191,1,0,0,0,0,0.09,0.09,3000,19080,7000,49920,79000, , , ,763,0,0,763, ,56142,0,0,0,0,0,0,7353,0,5,0,210,0,0,49,49,0,180,560,20,191,173,0,0,14,10,2,117,50,55,4,125,0,07/01/2013,06/30/2014
AK,AK0124,2015,LAKE MINCHUMINA COMMUNITY LIBRARY,123 FRONT STREET,LAKE MINCHUMINA,99757,-152.427523,63.848952,2,290,YUKON-KOYUKUK,5547,N,NP,SO,NO,10,10,1,0,0,0,0,0,0,0,18912,842,54641,74395, , , ,2162,0,1170,3332, ,71448,0,0,0,0,0,0,4323,0,210,0,782,250,0,49,49,19,1029,1876,132,30,2579,0,0,12,2,0,250,50,0,2,520,300,07/01/2013,06/30/2014
AK,AK0126,2015,IGIUGIG TRIBAL LIBRARY,1 AIRPORT WAY,IGIUGIG,99613,-156.57377,58.748921,2,60,LAKE AND PENINSULA,957,Y,NL,SO,NO,53,53,1,0,0,0.2,0.2,0.5,0.7,1215,18600,15909,49920,85644, , , ,3584,0,0,3584, ,85154,0,0,0,0,0,0,10300,9773,141,10496,190,0,1,49,50,28,600,1722,912,82,1238,2,12,78,60,10,254,185,28,7,341,0,07/01/2013,06/30/2014
AK,AK0127,2015,COFFMAN COVE COMMUNITY LIBRARY,108 NW DENALI ALLEY,COFFMAN COVE,99918,-131.69729,55.357009,2,198,PR WALES-OUTER KE,6396,Y,CI,SO,NO,174,174,1,0,0,0,0,0.2,0.2,2515,10802,10806,28320,52443, , , ,2904,769,0,3673, ,53910,0,0,0,0,0,809,15493,0,0,0,0,0,0,49,49,0,1366,4215,148,174,1276,0,0,34,24,4,96,31,22,4,1324,747,07/01/2013,06/30/2014
AK,AK0130,2015,THORNE BAY PUBLIC LIBRARY,120 FREEMAN DRIVE,THORNE BAY,99919,-132.5233422,55.6868741,2,198,PR WALES-OUTER KE,6396,Y,CI,SO,NO,530,530,1,0,0,0,1,0,1,5907,10334,2821,15575,34637, , , ,2598,0,300,2898, ,33976,0,0,0,0,0,0,4892,0,171,0,1290,0,0,49,49,10,1443,2263,429,385,2841,0,39,6,3,2,137,24,107,5,957,0,07/01/2013,06/30/2014
AK,AK0134,2015,WHALE PASS COMMUNITY LIBRARY,BEACH ROAD LOT 3 BLOCK 14,WHALE PASS,99950,-133.1211057,56.1135692,2,198,PR WALES-OUTER KE,6396,N,CI,SO,NO,39,39,1,0,0,0,0,0,0,0,18768,2821,50602,72191, , , ,2637,0,2159,4796, ,71118,0,0,0,0,0,0,5943,0,131,0,2073,0,0,49,49,27,638,2691,121,274,2843,0,1,47,45,0,463,457,0,3,1455,0,07/01/2013,06/30/2014
AK,AK0135,2015,TOGIAK PUBLIC LIBRARY AND CULTURAL CENTER,2 MAIN STREET,TOGIAK,99678,0,0,2,70,DILLINGHAM,4988,Y,NP,SO,NO,876,876,1,0,0,0,0.5,0,0.5,0,12597,18922,92595,124114, , , ,26729,0,0,26729, ,125730,0,0,0,0,0,0,17000,45,0,0,203,0,0,49,49,2,1560,7150,391,407,2437,0,8,5,3,2,136,92,44,7,6010,3090,07/01/2013,06/30/2014
AK,AK0136,2015,SCAMMON BAY PUBLIC LIBRARY,103 MAIN STREET,SCAMMON BAY,99662,-166.081432,61.534112,2,270,WADE HAMPTON,8010,Y,CI,SO,NO,528,528,1,0,0,0,0.3,0,0.3,5500,6600,7000,3622,22722, , , ,2000,0,0,2000, ,18276,0,0,0,0,0,0,3990,0,40,0,28,0,0,49,49,0,1250,470,10,528,98,0,0,3,2,0,70,20,0,3,340,50,07/01/2013,06/30/2014
AK,AK0137,2015,KLUKWAN COMMUNITY/SCHOOL LIBRARY,315 MISSION STREET,KLUKWAN,99827,-135.448159,59.23259,2,100,HAINES,2566,Y,MJ,SO,NO,84,84,1,0,0,0,1.3,0,1.3,500,10070,77460,31234,119264, , , ,4409,699,1066,6174, ,109398,0,0,0,0,0,0,6270,0,105,0,728,0,0,49,49,13,676,1119,416,341,1996,0,10,84,45,24,223,77,63,4,338,20,07/01/2013,06/30/2014
AL,AL0001,2015,CARL ELLIOTT REGIONAL LIBRARY SYSTEM,98 18TH STREET EAST,JASPER,35501,-87.2739076,33.8333948,1,127,WALKER,65471,N,MJ,SO,HQ,66099,66099,1,0,0,1,3.5,0,3.5,99651,86706,0,59934,246291,106857,22692,129549,14512,6000,0,20512,96644,246705,0,0,0,0,0,0,0,19749,0,4884,0,25,0,57,57,0,2340,209399,32112,0,0,22,26,0,0,0,0,0,0,4,3530,-1,10/01/2013,09/30/2014
AL,AL0002,2015,ARLEY PUBLIC LIBRARY,6788 COUNTY ROAD 41,ARLEY,35541,-87.2234374,34.0500512,1,133,WINSTON,24150,Y,CI,SO,ME,354,354,1,0,0,0,1,0,1,36750,0,7000,2441,46191, , , ,4620,4375,0,8995, ,46191,0,0,0,0,0,0,9429,19749,272,4884,148,25,0,57,57,8,1820,5880,333,1853,13815,0,58,55,5,0,1246,175,0,5,1429,1036,10/01/2013,09/30/2014
AL,AL0005,2015,DOUBLE SPRINGS PUBLIC LIBRARY,637 BLAKE DRIVE,DOUBLE SPRINGS,35553,-87.3833998,34.1469989,1,133,WINSTON,24150,Y,CI,SO,ME,1068,1068,1,0,0,0,1,0.5,1.5,39119,0,7000,1750,47869, , , ,4576,4375,0,8951, ,47869,691,0,0,0,691,691,11092,19749,5,4884,6,25,0,57,57,0,2210,5580,2470,1825,17337,0,2,12,7,0,865,419,0,5,1971,575,10/01/2013,09/30/2014
AL,AL0006,2015,HALEYVILLE PUBLIC LIBRARY,913 20TH STREET,HALEYVILLE,35565,-87.623363,34.2263998,1,133,WINSTON,24150,Y,CI,SO,ME,4103,4103,1,0,0,0,2,0,2,81615,0,7000,1750,90365, , , ,5584,4375,0,9959, ,90365,691,0,0,0,691,691,12690,19749,100,4884,180,25,0,57,57,18,2496,18148,1227,3745,24153,0,9,22,15,0,834,441,0,6,4883,308,10/01/2013,09/30/2014
AL,AL0007,2015,JASPER PUBLIC LIBRARY,98 EAST 18TH STREET,JASPER,35501,-87.2739076,33.8333948,1,127,WALKER,65471,Y,CI,SO,ME,14235,14235,1,0,0,1,4.7,0,4.7,184183,0,10000,600,194783,79082,15820,94902,25392,0,2426,27818,72063,194783,0,0,0,0,0,0,60375,19749,445,4884,1655,25,0,57,57,29,2080,49367,19128,15715,96763,26,18,53,6,0,1179,587,0,17,13803,2186,10/01/2013,09/30/2014
AL,AL0009,2015,SUMITON PUBLIC LIBRARY,416 STATE STREET,SUMITON,35148,-87.0495275,33.7495769,1,127,WALKER,65471,Y,CI,SO,ME,2474,2474,1,0,0,0,0.8,0.75,1.55,52485,0,7000,1750,61235, , , ,4673,4375,0,9048, ,61235,0,0,0,0,0,0,10743,19749,43,4884,131,25,0,57,57,3,2288,6420,3851,2656,19734,0,0,63,61,0,855,771,0,5,1693,123,10/01/2013,09/30/2014
AL,AL0010,2015,CHEAHA REGIONAL LIBRARY,935 COLEMAN STREET,HEFLIN,36264,-85.5889203,33.6437581,1,29,CLEBURNE,15080,Y,MJ,MA,HQ,100328,100328,1,0,2,0,1,2,3,7650,123918,0,2260,133828,48214,16150,64364,7574,1200,3366,12140,25190,101694,0,0,0,0,0,0,20650,8418,2690,2986,590,15,1,57,58,2,3560,1242,564,8721,83702,238,141,6,2,0,116,79,0,6,344,-1,10/01/2013,09/30/2014
AL,AL0011,2015,ROANOKE - ANNIE L. AWBREY PUBLIC LIBRARY,736 COLLEGE STREET,ROANOKE,36274,-85.3706895,33.1495407,1,111,RANDOLPH,22539,Y,CI,SO,ME,6015,6015,1,0,0,0,1,3,4,102248,5348,0,7184,114780,55591,17106,72697,9357,0,0,9357,24001,106055,0,0,0,0,0,1216,19886,0,375,0,227,0,0,57,57,0,2236,32696,2246,7383,37470,1,12,134,111,4,3540,2987,10,18,27437,10804,10/01/2013,09/30/2014
AL,AL0012,2015,ASHLAND CITY PUBLIC LIBRARY,11 2ND AVENUE NORTH,ASHLAND,36251,-85.837242,33.274741,1,27,CLAY,13552,Y,CI,SO,ME,1952,1952,1,0,0,0,1,1,2,65115,2756,0,6387,74258, , , ,7598,1500,94,9192, ,65934,8060,0,0,0,8060,8060,24119,20285,341,4872,1697,25,0,57,57,0,2008,13914,821,4414,16470,5,2,75,60,8,1344,1201,88,15,4425,129,10/01/2013,09/30/2014
AL,AL0013,2015,SYLACAUGA - B. B. COMER MEMORIAL LIBRARY,314 NORTH BROADWAY AVENUE,SYLACAUGA,35150,-86.2507305,33.1718114,1,121,TALLADEGA,81322,Y,CI,SO,NO,12761,12761,1,0,0,1,3,10.2,13.2,627183,12249,10000,73970,723402,418552,95688,514240,23224,13776,1945,38945,176746,729931,0,0,0,0,0,0,100884,20513,1269,5200,95,25,2,57,59,101,2600,59425,14574,30490,174554,15,28,323,117,29,13031,5104,1276,50,14893,1475,10/01/2013,09/30/2014
AL,AL0014,2015,CHEROKEE COUNTY PUBLIC LIBRARY,310 MARY STREET,CENTRE,35960,-85.6763663,34.1493617,1,19,CHEROKEE,26037,Y,CO,SO,ME,3574,3574,1,0,0,0.9,0.9,1.9,2.8,137178,10800,0,23119,171097,68021,16415,84436,14336,0,8325,22661,49541,156638,0,0,0,0,0,0,32438,0,1263,0,18,0,0,57,57,15,1990,40778,9010,12400,90419,2,89,246,135,3,2578,1783,8,23,9135,2080,10/01/2013,09/30/2014
AL,AL0015,2015,CHILDERSBURG - EARLE A. RAINWATER MEMORIAL LIBRARY,124 NINTH AVENUE SW,CHILDERSBURG,35044,-86.3556694,33.2775588,1,121,TALLADEGA,81322,Y,CI,SO,ME,5124,5124,1,0,0,0,2,3,5,133544,4861,0,20145,158550,70122,21036,91158,21628,1500,1850,24978,26981,143117,0,0,0,0,0,14900,59707,20801,1758,5231,2981,25,1,57,58,36,2490,21148,1700,12990,34123,17,16,42,25,0,507,282,0,19,14690,260,10/01/2013,09/30/2014
AL,AL0016,2015,LINCOLN PUBLIC LIBRARY,49 COMPLEX DRIVE,LINCOLN,35096,-86.1235871,33.6044887,1,121,TALLADEGA,81322,Y,CI,SO,ME,6337,6337,1,0,0,0,2,0,2,138893,5560,0,3000,147453, , , ,8560,0,0,8560, ,118893,0,0,0,0,0,0,14447,0,155,0,67,0,0,57,57,4,2113,8174,7289,3819,6150,19,15,55,40,0,1160,800,0,15,5211,0,10/01/2013,09/30/2014
AL,AL0017,2015,LINEVILLE PUBLIC LIBRARY,60119 HIGHWAY 49,LINEVILLE,36266,-85.7544585,33.3145941,1,27,CLAY,13552,Y,CI,SO,ME,2308,2308,1,0,0,0,1,0,1,43775,2015,0,2415,48205, , , ,3742,0,600,4342, ,24581,0,0,0,0,0,0,15415,0,678,0,0,0,1,57,58,2,1857,5401,956,2546,8057,0,0,8,8,0,468,468,0,3,174,0,10/01/2013,09/30/2014
AL,AL0018,2015,HEFLIN - LUCILE L. MORGAN PUBLIC LIBRARY,541 ROSS STREET,HEFLIN,36264,-85.5878737,33.6437218,1,29,CLEBURNE,15080,Y,CI,SO,ME,3457,3457,1,0,0,0,0.55,0,0.55,25000,3111,0,3342,31453, , , ,1603,0,317,1920, ,31672,0,0,0,0,0,613,17526,0,301,0,1075,0,0,57,57,25,1214,9332,744,4802,8210,7,10,1,1,0,35,35,0,7,2998,115,10/01/2013,09/30/2014
AL,AL0019,2015,OXFORD PUBLIC LIBRARY,110 EAST 6TH STREET,OXFORD,36203,-85.8355168,33.6097203,1,15,CALHOUN,115916,Y,CI,SO,ME,21275,21275,1,0,0,1,1,7,8,450901,20422,0,0,471323,225000,0,225000,29394,0,5941,35335,35000,295335,0,0,0,0,0,0,55199,20285,3320,4872,2608,25,0,57,57,32,2236,32000,2000,20913,93916,4,138,412,137,0,9198,6804,0,53,27178,-1,10/01/2013,09/30/2014
AL,AL0020,2015,TALLADEGA - ARMSTRONG-OSBORNE PUBLIC LIBRARY,202 SOUTH STREET EAST,TALLADEGA,35160,-86.0997635,33.4331188,1,121,TALLADEGA,81322,Y,CI,SO,NO,15591,15591,1,0,0,1,1,7,8,384787,14966,1125,12330,413208,196715,43962,240677,25041,0,223,25264,148280,414221,0,0,0,0,0,0,150437,21087,1819,4953,121,26,1,57,58,144,2384,63200,83200,18515,58039,112,47,830,810,0,16750,16400,0,27,11150,450,10/01/2013,09/30/2014
AL,AL0022,2015,ABBEVILLE MEMORIAL LIBRARY,301 KIRKLAND STREET,ABBEVILLE,36310,-85.2504667,31.5672929,1,67,HENRY,17190,Y,CI,SO,NO,7645,7645,1,0,0,0,1,1.65,2.65,105239,8297,0,8556,122092,59208,18795,78003,7375,0,1481,8856,35072,121931,0,0,0,0,0,0,26348,20285,844,4872,489,25,0,57,57,40,2080,31759,8902,6278,16103,0,0,61,32,2,1461,1036,5,19,10967,3290,10/01/2013,09/30/2014
AL,AL0023,2015,ARITON - DOT LANEY MEMORIAL LIBRARY,30 WEST MAIN STREET,ARITON,36311,-85.7194125,31.6001879,1,45,DALE,49484,Y,CI,SO,ME,-3,-3,-3,-3,-3,-3,-3,-3,-3,-3,-3,-3,-3,-3, , , ,-3,-3,-3,-3, ,-3,-3,-3,-3,-3,-3,-3,-3,-3,-3,-3,-3,-3,-3,-3,-3,-3,-3,-3,-3,-3,-3,-3,-3,-3,-3,-3,-3,-3,-3,-3,-3,-3,0,0
AL,AL0024,2015,HEADLAND - BLANCHE R. SOLOMON MEMORIAL LIBRARY,17 PARK STREET,HEADLAND,36345,-85.3419344,31.3523595,1,67,HENRY,17190,Y,CI,SO,NO,9642,9642,1,0,0,0,1,2,3,116550,8297,4000,8391,137238,63586,12167,75753,15143,1000,6253,22396,35601,133750,0,0,0,0,0,0,15276,20801,489,4903,522,25,0,57,57,30,2236,26000,6500,4171,20175,0,0,43,33,0,1137,932,0,16,6000,2066,10/01/2013,09/30/2014
AL,AL0025,2015,BRUNDIDGE - TUPPER LIGHTFOOT MEMORIAL LIBRARY,164 SOUTH MAIN STREET,BRUNDIDGE,36010,-85.8155105,31.7189493,1,109,PIKE,33389,Y,CI,SO,NO,8496,8496,1,0,0,1,4,0,4,216896,6902,0,7141,230939,75625,19688,95313,28558,0,9174,37732,25372,158417,2357,0,0,0,2357,40123,12109,0,147,0,528,0,0,57,57,24,2236,9070,1953,2521,13968,0,0,214,105,7,1897,1351,70,19,4462,0,10/01/2013,09/30/2014
AL,AL0026,2015,OZARK - DALE COUNTY PUBLIC LIBRARY,416 JAMES STREET,OZARK,36360,-85.6327649,31.452208,1,45,DALE,49484,Y,MJ,SO,ME,37931,37931,1,0,0,0,2,5,7,150750,35679,0,67274,253703,149287,12367,161654,21912,3000,2605,27517,64793,253964,0,0,0,0,0,0,62515,1063,2472,0,2289,0,0,57,57,0,2129,108146,7665,13156,105205,116,105,311,136,55,4653,1521,1261,42,34195,10500,10/01/2013,09/30/2014
AL,AL0029,2015,CLIO - ELTON B. STEPHENS LIBRARY,17 SCHOOL STREET,CLIO,36017,-85.6120904,31.7087604,1,5,BARBOUR,26887,Y,CI,SO,ME,3859,3859,1,0,0,0,1,0,1,7571,3704,0,0,11275, , , ,1840,0,400,2240, ,10268,0,0,0,0,0,0,20083,0,239,0,644,0,0,57,57,0,1045,19087,2009,1070,42718,0,0,14,5,5,141,71,44,18,6712,0,10/01/2013,09/30/2014
AL,AL0030,2015,LOUISVILLE PUBLIC LIBRARY,1951 MAIN STREET,LOUISVILLE,36048,-85.555864,31.782949,1,5,BARBOUR,26887,Y,CI,SO,ME,2810,2810,1,0,0,0,0.6,0,0.6,4159,2697,0,0,6856, , , ,1164,0,128,1292, ,6858,0,0,0,0,0,0,4071,0,0,0,15,0,0,57,57,0,900,465,10,255,385,0,0,2,2,0,170,170,0,2,298,0,10/01/2013,09/30/2014
AL,AL0031,2015,MIDLAND CITY - MARY BERRY BROWN MEMORIAL LIBRARY,1318 HINTON WATERS AVENUE,MIDLAND CITY,36350,-85.523526,31.336223,1,45,DALE,49484,Y,CI,SO,ME,2403,2403,1,0,0,0,1,1,2,34558,2307,0,1991,38856, , , ,1615,0,0,1615, ,52532,0,0,0,0,0,0,8581,0,130,0,771,0,0,57,57,0,1800,11255,32,3252,3252,0,0,28,18,0,832,611,0,18,6254,-1,10/01/2013,09/30/2014
AL,AL0032,2015,NEWTON PUBLIC LIBRARY,209 OATES DRIVE,NEWTON,36352,-85.5968512,31.3319466,1,45,DALE,49484,Y,CI,SO,ME,2162,2162,1,0,0,0,1,0,1,21315,2075,0,1,23391, , , ,1815,0,0,1815, ,18825,0,0,0,0,0,0,12955,0,260,0,50,0,0,57,57,0,1580,5330,121,755,17246,0,0,2,1,0,7,5,0,8,955,0,10/01/2013,09/30/2014
AL,AL0033,2015,CLAYTON - TOWN AND COUNTY PUBLIC LIBRARY,45 NORTH MIDWAY STREET,CLAYTON,36016,-85.458798,31.8845803,1,5,BARBOUR,26887,Y,CI,SO,ME,5283,5283,1,0,0,0,1,1,2,12930,5071,7000,4825,29826, , , ,10075,0,1267,11342, ,28066,0,0,7000,0,7000,0,16209,0,152,0,164,0,0,57,57,5,1250,6644,744,2461,2342,0,0,11,10,1,205,190,15,16,4980,1550,10/01/2013,09/30/2014
AL,AL0034,2015,TROY PUBLIC LIBRARY,500 EAST WALNUT STREET,TROY,36081,-85.9677353,31.8085334,1,109,PIKE,33389,Y,CI,SO,NO,24686,24686,1,0,0,1,7,5,12,565997,24949,0,12489,603435,311114,101147,412261,56335,3904,16794,77033,74702,563996,0,0,0,0,0,0,77367,18078,3470,4419,2765,26,2,57,59,89,2600,93216,32971,21401,208664,0,496,154,44,9,1772,311,102,16,9450,7036,10/01/2013,09/30/2014
AL,AL0035,2015,UNION SPRINGS PUBLIC LIBRARY,103 NORTH PRAIRIE STREET,UNION SPRINGS,36089,-85.7161121,32.1406206,1,11,BULLOCK,10764,Y,MJ,SO,NO,10474,10474,1,0,0,0,1,4,5,39700,10054,0,8237,57991,46833,0,46833,9446,0,200,9646,9300,65779,0,0,0,0,0,0,13112,0,0,0,46,0,0,57,57,14,1560,9381,1204,2186,2884,0,0,65,18,11,1450,1160,110,24,6432,180,10/01/2013,09/30/2014
AL,AL0037,2015,ANDALUSIA PUBLIC LIBRARY,212 SOUTH THREE NOTCH STREET,ANDALUSIA,36420,-86.4829134,31.3068476,1,39,COVINGTON,37914,Y,CI,SO,ME,18322,18322,1,0,0,1,2,6,8,251921,17587,0,13418,282926,159755,50887,210642,12089,0,1500,13589,31630,255861,0,0,0,0,0,0,49917,0,1211,0,1660,0,1,57,58,0,2499,26104,33872,24023,45593,81,504,110,66,5,6604,5997,15,32,23236,400,10/01/2013,09/30/2014
AL,AL0038,2015,BRANTLEY PUBLIC LIBRARY,10 MLK DRIVE,BRANTLEY,36009,-86.292382,31.579297,1,41,CRENSHAW,13977,Y,CI,SO,NO,3526,3526,1,0,0,0,2,0,2,26500,3385,0,0,29885, , , ,2927,0,1000,3927, ,27323,0,0,0,0,0,0,6385,0,0,0,0,0,0,57,57,0,1100,3260,100,1655,12211,0,0,10,10,0,110,110,0,4,1000,2100,10/01/2013,09/30/2014
AL,AL0039,2015,ELBA PUBLIC LIBRARY,406 SIMMONS STREET,ELBA,36323,-86.066332,31.414525,1,31,COFFEE,50909,Y,CI,SO,ME,9806,9806,1,0,0,0,1,1,2,78858,9412,5000,3381,96651, , , ,17722,5500,275,23497, ,96588,32744,0,0,0,32744,32744,19381,20285,577,5200,573,25,0,57,57,21,1990,20063,821,1866,16962,0,0,77,77,0,751,751,0,8,3993,1825,10/01/2013,09/30/2014
AL,AL0040,2015,GENEVA - EMMA KNOX KENAN LIBRARY,312 SOUTH COMMERCE STREET,GENEVA,36340,-85.8650891,31.0362535,1,61,GENEVA,26712,Y,CI,SO,NO,8456,8456,1,0,0,0,1,1.5,2.5,97121,8117,0,4193,109431,49257,21187,70444,10783,724,0,11507,19300,101251,0,0,0,0,0,0,17272,59,263,0,693,0,2,57,59,48,1820,16764,2646,5751,9695,0,0,20,16,0,359,338,0,3,3676,987,10/01/2013,09/30/2014
AL,AL0041,2015,ENTERPRISE PUBLIC LIBRARY,101 EAST GRUBBS STREET,ENTERPRISE,36330,-85.852791,31.314037,1,31,COFFEE,50909,Y,CI,SO,ME,41446,41446,1,0,0,0,2,3.6,5.6,135000,39784,0,42911,217695,135688,12004,147692,15199,8005,2871,26075,58847,232614,0,0,0,0,0,0,54307,6469,3613,648,3589,25,2,57,59,9,2530,92525,12547,22354,106452,0,6,740,484,10,7153,4438,31,28,13662,8909,10/01/2013,09/30/2014
AL,AL0042,2015,FLORALA PUBLIC LIBRARY,1214 FOURTH STREET,FLORALA,36442,-86.326526,31.020628,1,39,COVINGTON,37914,Y,CI,SO,ME,6445,6445,1,0,0,0,1,2,3,62055,6187,0,5952,74194,39264,5504,44768,8703,0,2430,11133,18825,74726,0,0,0,0,0,0,16945,20801,201,0,1409,0,0,57,57,31,1960,18540,338,2916,15991,0,0,88,55,0,665,525,0,10,5476,260,10/01/2013,09/30/2014
AL,AL0043,2015,HARTFORD - MCGREGOR-MCKINNEY PUBLIC LIBRARY,101 EAST FULTON STREET,HARTFORD,36344,-85.6967458,31.0982684,1,61,GENEVA,26712,Y,CI,SO,NO,6613,6613,1,0,0,0,1,1,2,86522,6348,2000,2677,97547, , , ,12047,3005,3617,18669, ,96099,500,0,2000,0,2500,2764,22683,17701,1170,4727,583,26,0,57,57,39,2248,13196,1033,2561,29723,0,6,46,23,5,690,491,60,10,4043,157,10/01/2013,09/30/2014
AL,AL0044,2015,LUVERNE PUBLIC LIBRARY,148 EAST THIRD STREET,LUVERNE,36049,-86.2614088,31.7163308,1,41,CRENSHAW,13977,Y,CI,SO,ME,10557,10557,1,0,0,0,2,2,4,104903,10134,0,15904,130941,70262,15104,85366,9079,3599,7295,19973,26766,132105,0,0,0,0,0,0,15601,20285,1634,5200,1418,25,0,57,57,25,1793,28930,2408,7143,42422,26,17,151,124,12,3163,2298,120,14,6865,953,10/01/2013,09/30/2014
AL,AL0045,2015,OPP PUBLIC LIBRARY,1604 NORTH MAIN STREET,OPP,36467,-86.2549763,31.3071062,1,39,COVINGTON,37914,Y,CI,SO,ME,13188,13188,1,0,0,1,3,1,4,119400,12659,0,2300,134359,58000,16000,74000,13832,889,1584,16305,19400,109705,0,0,0,0,0,225,27587,103,1081,0,994,0,0,57,57,24,2080,16148,216,2522,14919,191,20,23,11,12,493,450,43,9,2540,-1,10/01/2013,09/30/2014
AL,AL0046,2015,SAMSON PUBLIC LIBRARY,200 NORTH JOHNSON STREET,SAMSON,36477,-86.045997,31.116736,1,61,GENEVA,26712,Y,CI,SO,NO,5906,5906,1,0,0,0,0.1,0.1,0.2,23614,5669,0,808,30091, , , ,5300,0,346,5646, ,38912,0,0,0,0,0,0,8055,0,178,0,202,0,0,57,57,20,1454,4924,137,1106,4592,0,0,0,0,0,0,0,0,7,2077,0,10/01/2013,09/30/2014
AL,AL0047,2015,SLOCOMB PUBLIC LIBRARY,134 SOUTH DALTON AVENUE,SLOCOMB,36375,-85.5936724,31.107025,1,61,GENEVA,26712,Y,CI,SO,NO,5956,5956,1,0,0,0,1,0,1,5617,5717,0,0,11334, , , ,2000,0,400,2400, ,18550,0,0,0,0,0,0,8843,0,116,0,0,0,0,57,57,0,880,4200,180,760,5225,0,0,0,0,0,0,0,0,10,1500,0,10/01/2013,09/30/2014
AL,AL0048,2015,HORSESHOE BEND REGIONAL LIBRARY,207 NORTH WEST STREET,DADEVILLE,36853,-85.7653961,32.8333469,1,123,TALLAPOOSA,41165,Y,MJ,MA,HQ,147615,147615,1,0,1,1.8,1.8,1.8,3.6,47716,182724,0,12960,243400,126119,40328,166447,15231,0,709,15940,49948,232335,0,0,0,0,0,0,48017,0,1283,0,572,0,0,57,57,9,2349,5473,104906,3783,37281,545,14,219,219,0,4360,4360,0,4,600,-1,10/01/2013,09/30/2014
AL,AL0049,2015,ALEXANDER CITY - ADELIA MCCONNELL RUSSELL LIBRARY,318 CHURCH STREET,ALEXANDER CITY,35010,-85.9539223,32.9414721,1,123,TALLAPOOSA,41165,Y,CI,MA,ME,14728,14728,1,1,0,0,1,9.8,10.8,469212,7333,16000,32027,524572,286177,106807,392984,15931,7445,3902,27278,109355,529617,21074,0,0,0,21074,21074,30465,20285,1296,5200,1074,25,2,70,72,48,4896,59852,12220,10017,55716,95,127,132,91,7,6131,5437,43,30,14234,-1,10/01/2013,09/30/2014
AL,AL0050,2015,DADEVILLE PUBLIC LIBRARY,205 NORTH WEST STREET,DADEVILLE,36853,-85.7653961,32.8333407,1,123,TALLAPOOSA,41165,Y,CI,SO,ME,3194,3194,1,0,0,0,1,1.5,2.5,85365,1788,0,3393,90546,47583,19800,67383,6392,1500,2476,10368,15027,92778,0,0,0,0,0,0,10347,55960,375,5200,780,25,0,57,57,10,1958,27950,1508,3582,18427,3,520,83,60,0,1922,995,0,10,3307,797,10/01/2013,09/30/2014
AL,AL0051,2015,GOODWATER PUBLIC LIBRARY,36 WEOGUFKA STREET,GOODWATER,35072,-86.0524899,33.0638376,1,37,COOSA,10886,Y,CI,SO,ME,1396,1396,1,0,0,0,0.6,0.4,1,43613,2050,0,6070,51733, , , ,3948,0,580,4528, ,48475,0,0,0,0,0,0,17175,0,451,0,1842,0,0,57,57,32,2108,10729,2132,3125,4932,24,39,9,7,1,244,185,20,12,3786,-1,10/01/2013,09/30/2014
AL,AL0052,2015,AUBURN PUBLIC LIBRARY,749 EAST THACH AVENUE,AUBURN,36830,-85.466363,32.6044107,1,81,LEE,154255,Y,CI,SO,ME,56908,56908,1,0,0,7,10,10,20,1604265,27968,9356,2318,1643907,955960,272768,1228728,88174,35663,7860,131697,261842,1622267,9431,0,0,0,9431,9431,66301,1983,3062,548,4811,93,5,57,62,142,3430,204851,17619,29406,241497,135,113,428,286,115,15631,13653,1525,40,76930,98042,10/01/2013,09/30/2014
AL,AL0053,2015,OPELIKA - LEWIS COOPER JR. MEMORIAL LIBRARY,200 SOUTH 6TH STREET,OPELIKA,36801,-85.3759494,32.649137,1,81,LEE,154255,Y,CI,SO,ME,27825,27825,1,0,0,2,4,8,12,751222,26709,0,0,777931,406746,117304,524050,62680,8541,16570,87791,53029,664870,0,0,0,0,0,0,69321,9111,3180,1768,4006,0,5,57,62,88,3500,128703,2689,29825,106939,86,197,77,73,0,1575,1549,0,27,27358,1250,10/01/2013,09/30/2014
AL,AL0054,2015,MILLBROOK PUBLIC LIBRARY,3650 GRANDVIEW ROAD,MILLBROOK,36054,-86.3620007,32.4767889,1,51,ELMORE,80977,Y,CI,SO,ME,14952,14952,1,0,0,0,3,0,3,167604,7221,0,13363,188188,100312,39677,139989,9304,4612,5814,19730,24241,183960,17852,0,0,0,17852,17852,31721,20801,1635,4872,2154,0,0,57,57,38,2801,65480,8552,15623,81964,13,62,87,66,0,3120,2910,0,23,21951,7488,10/01/2013,09/30/2014
AL,AL0055,2015,ROCKFORD PUBLIC LIBRARY,9688 US HWY 231,ROCKFORD,35136,-86.162362,32.894112,1,37,COOSA,10886,Y,CI,SO,ME,458,458,1,0,0,0,1,0,1,47495,2453,0,781,50729, , , ,2880,0,0,2880, ,50516,0,0,0,0,0,0,4880,0,147,0,189,0,0,57,57,14,2550,1987,32,598,999,0,7,6,6,0,12,12,0,4,776,37,10/01/2013,09/30/2014
AL,AL0056,2015,TALLASSEE COMMUNITY PUBLIC LIBRARY,99 FREEMAN AVENUE,TALLASSEE,36078,-85.8792243,32.5401591,1,123,TALLAPOOSA,41165,Y,CI,SO,ME,4829,4829,1,0,0,0,2,0,2,88452,2702,0,26582,117736, , , ,6346,1500,0,7846, ,107369,0,0,0,0,0,0,26059,20285,1633,4872,1404,25,0,57,57,4,2350,28340,10025,2600,37607,0,0,67,38,18,2090,2000,45,12,22815,1000,10/01/2013,09/30/2014
AL,AL0057,2015,WETUMPKA PUBLIC LIBRARY,212 SOUTH MAIN STREET,WETUMPKA,36092,-86.205711,32.535896,1,51,ELMORE,80977,Y,CI,SO,ME,7103,7103,1,0,0,1.5,1.5,3.5,5,270209,3541,15000,22503,311253,161799,36572,198371,13646,2000,6500,22146,64902,285419,0,0,0,0,0,0,25612,20285,1674,5200,1693,25,2,57,59,26,2854,33778,6615,20704,83104,15,120,163,125,13,2338,1936,91,15,21599,5703,10/01/2013,09/30/2014
AL,AL0059,2015,FLORENCE - LAUDERDALE PUBLIC LIBRARY,350 NORTH WOOD AVENUE,FLORENCE,35630,-87.6746533,34.8035633,1,77,LAUDERDALE,93096,Y,MJ,SO,ME,89572,89572,1,0,0,2.5,15.5,5.5,21,910450,63681,0,394953,1369084,533739,134472,668211,64751,29674,20387,114812,493157,1276180,0,0,0,20000,20000,54000,72710,11222,3521,2337,5326,62,5,57,62,82,2754,169691,81445,43315,246346,0,34,777,355,142,19224,11352,2822,40,42113,54600,10/01/2013,09/30/2014
AL,AL0060,2015,TUSCUMBIA - HELEN KELLER PUBLIC LIBRARY,511 NORTH MAIN STREET,TUSCUMBIA,35674,-87.7034975,34.7365408,1,33,COLBERT,54543,Y,MJ,SO,NO,12786,12786,1,0,0,1,3,1,4,133702,12273,0,0,145975,49209,20230,69439,19750,2200,3050,25000,31480,125919,0,0,0,0,0,0,36330,47147,1235,0,1648,0,1,57,58,20,1924,9358,4679,7799,34775,0,0,44,43,0,1550,1500,0,12,4118,0,10/01/2013,09/30/2014
AL,AL0061,2015,LEIGHTON PUBLIC LIBRARY,8740 MAIN STREET,LEIGHTON,35646,-87.5289566,34.700231,1,33,COLBERT,54543,Y,MJ,SO,NO,5102,5102,1,0,0,0,1,0,1,5000,4897,4610,5871,20378, , , ,1260,0,452,1712, ,14276,0,0,0,0,0,0,7304,0,56,0,517,0,0,57,57,0,823,2000,2123,761,1617,0,0,7,4,0,257,200,0,7,1600,-1,10/01/2013,09/30/2014
AL,AL0062,2015,MUSCLE SHOALS PUBLIC LIBRARY,1918 EAST AVALON AVENUE,MUSCLE SHOALS,35661,-87.645404,34.7444578,1,33,COLBERT,54543,Y,MJ,SO,NO,17748,17748,1,0,0,1,1,10,11,570983,17036,2000,29599,619618,292229,95738,387967,69977,22159,29864,122000,109651,619618,0,0,0,0,0,0,52953,47147,2187,3625,8381,3306,3,57,60,56,2193,194532,32734,16211,248242,8,0,232,120,8,3231,2320,189,56,19533,7240,10/01/2013,09/30/2014
AL,AL0063,2015,ROGERSVILLE PUBLIC LIBRARY,74 BANK STREET,ROGERSVILLE,35652,-87.2920732,34.8242352,1,77,LAUDERDALE,93096,Y,CI,SO,ME,1250,1250,1,0,0,1,1,1.5,2.5,71651,10060,4000,20728,106439,58093,7999,66092,12174,0,7770,19944,20313,106349,5665,0,0,7215,12880,12880,35858,0,860,0,1475,0,2,57,59,26,2080,21535,3405,4071,44382,0,0,143,67,21,2444,1550,130,10,4341,2417,10/01/2013,09/30/2014
AL,AL0064,2015,SHEFFIELD PUBLIC LIBRARY,316 NORTH MONTGOMERY AVENUE,SHEFFIELD,35660,-87.6985416,34.7614588,1,33,COLBERT,54543,Y,CI,SO,NO,13395,13395,1,0,0,0,4,2,6,242032,12857,0,1700,256589,99791,61657,161448,47962,10971,13547,72480,51835,285763,0,0,0,0,0,0,56635,75001,1134,30034,4577,0,10,57,67,52,2000,57227,4723,7850,62991,0,0,13,10,0,1114,827,0,38,9100,5213,10/01/2013,09/30/2014
AL,AL0065,2015,NORTHWEST REGIONAL LIBRARY,185 ASHWOOD DRIVE,WINFIELD,35594,-87.8150451,33.9308411,1,93,MARION,30271,N,MJ,SO,HQ,34992,34992,1,0,0,0,0.5,1.4,1.9,25386,54830,32450,11770,124436, , , ,48699,0,0,48699, ,111816,0,0,0,0,0,0,80482,20801,53,4903,219,25,0,57,57,0,1456,0,439,100,3136,20,51,0,0,0,0,0,0,0,0,-1,10/01/2013,09/30/2014
AL,AL0066,2015,HAMILTON - CLYDE NIX PUBLIC LIBRARY,350 BEXAR AVENUE WEST,HAMILTON,35570,-87.992958,34.143375,1,93,MARION,30271,Y,CI,SO,ME,6629,6629,1,0,0,0,1,0.5,1.5,66106,0,1500,0,67606, , , ,3000,0,0,3000, ,67606,0,0,0,0,0,0,17632,0,334,0,749,0,0,57,57,0,1878,14105,1621,1918,10986,24,8,7,6,0,272,168,0,6,4359,349,10/01/2013,09/30/2014
AL,AL0067,2015,KENNEDY PUBLIC LIBRARY,17885 HIGHWAY 96,KENNEDY,35574,-87.9759123,33.5860805,1,75,LAMAR,14086,Y,CI,SO,ME,438,438,1,0,0,0,1,0,1,29132,0,7950,0,37082, , , ,2450,0,7950,10400, ,37083,0,0,0,0,0,0,5550,0,17,0,13,0,0,57,57,0,1900,336,979,811,1687,0,164,1,1,0,46,46,0,4,372,8,10/01/2013,09/30/2014
AL,AL0068,2015,GUIN - MCHS COMMUNITY LIBRARY,8115 U.S. HIGHWAY 43,GUIN,35563,-87.9177289,33.9822137,1,93,MARION,30271,Y,MJ,SO,ME,2355,2355,1,0,0,1,1.5,0,1.5,37666,0,7000,0,44666, , , ,8750,0,0,8750, ,44666,0,0,0,0,0,0,21672,0,493,0,538,0,0,57,57,0,2060,17938,478,2051,20215,0,0,2,1,0,77,25,0,9,5097,760,10/01/2013,09/30/2014
AL,AL0069,2015,MILLPORT PUBLIC LIBRARY,920 BLACK STREET,MILLPORT,35576,-88.0894225,33.5615529,1,75,LAMAR,14086,Y,CI,SO,ME,1028,1028,1,0,0,0,1,0,1,32358,0,1500,0,33858, , , ,1975,0,0,1975, ,33233,0,0,0,0,0,0,9985,0,89,0,110,0,0,57,57,0,1716,3375,1201,1374,2534,8,9,1,1,0,44,44,0,4,867,43,10/01/2013,09/30/2014
AL,AL0070,2015,RUSSELLVILLE PUBLIC LIBRARY,110 EAST LAWRENCE STREET,RUSSELLVILLE,35653,-87.7302538,34.5047372,1,59,FRANKLIN,31601,Y,CI,SO,ME,19226,19226,1,0,0,0,2.2,0,2.2,50700,18455,0,2482,71637,56117,20988,77105,10032,0,3647,13679,12937,103721,0,0,0,0,0,0,25471,0,489,0,1210,0,0,57,57,0,1730,7880,1295,14742,26816,0,0,41,31,7,771,420,124,3,2565,1095,10/01/2013,09/30/2014
AL,AL0071,2015,SULLIGENT PUBLIC LIBRARY,514 ELM STREET,SULLIGENT,35586,-88.1317513,33.9003387,1,75,LAMAR,14086,Y,CI,SO,ME,1889,1889,1,0,0,0,1,0.5,1.5,53328,0,4000,0,57328, , , ,5153,0,0,5153, ,55014,0,0,0,0,0,3314,15265,0,69,0,124,0,0,57,57,0,1920,6746,2196,3091,8819,10,2,14,8,0,350,192,0,5,1827,146,10/01/2013,09/30/2014
AL,AL0072,2015,VERNON - MARY WALLACE COBB MEMORIAL LIBRARY,110 FIRST AVENUE WEST,VERNON,35592,-88.1107773,33.757955,1,75,LAMAR,14086,Y,CI,SO,ME,1953,1953,1,0,0,0,1,0.5,1.5,75632,0,500,0,76132, , , ,1525,0,0,1525, ,57081,0,0,0,0,0,20000,13286,0,87,0,590,0,0,57,57,0,2128,8606,1752,6398,8941,34,14,48,48,0,680,680,0,9,2078,103,10/01/2013,09/30/2014
AL,AL0073,2015,RED BAY - WEATHERFORD PUBLIC LIBRARY,307 4TH AVENUE SOUTH,RED BAY,35582,-88.1573331,34.4427927,1,59,FRANKLIN,31601,Y,CI,SO,ME,3153,3153,1,0,0,0,0.63,0,0.63,42195,0,0,0,42195, , , ,740,0,0,740, ,42570,0,0,0,0,0,0,12581,0,49,0,106,0,0,57,57,0,1200,10988,45,2877,5825,6,8,9,8,0,505,438,0,7,2362,354,10/01/2013,09/30/2014
AL,AL0074,2015,WINFIELD PUBLIC LIBRARY,185 ASHWOOD DRIVE,WINFIELD,35594,-87.8150451,33.9308411,1,93,MARION,30271,Y,CI,SO,ME,4684,4684,1,0,0,0,1,2,3,84220,0,7000,0,91220,59511,16155,75666,14000,0,0,14000,8554,98220,0,0,0,0,0,0,24224,0,375,0,1906,0,0,57,57,0,2004,21120,4449,6031,26296,141,308,44,32,8,1816,1232,170,19,6502,520,10/01/2013,09/30/2014
AL,AL0076,2015,ATHENS - LIMESTONE PUBLIC LIBRARY,405 EAST SOUTH STREET,ATHENS,35611,-86.9645795,34.7998164,1,83,LIMESTONE,90787,Y,CO,SO,NO,87654,87654,1,0,0,3,7,4.05,11.05,290000,84139,35125,120329,529593,285118,120786,405904,23173,10000,4000,37173,43411,486488,0,0,0,0,0,0,72829,89801,1484,4858,2585,25,2,57,59,34,2347,73556,61003,10182,134642,0,23,347,144,67,6287,3459,556,16,14674,2171,10/01/2013,09/30/2014
AL,AL0077,2015,DECATUR PUBLIC LIBRARY,504 CHERRY STREET NE,DECATUR,35601,-86.981431,34.606014,1,103,MORGAN,119607,Y,CI,SO,ME,89412,89412,1,0,0,1,15.48,3.88,19.36,439200,85826,10000,361996,897022,453397,153742,607139,63645,19650,23861,107156,182727,897022,0,0,0,0,0,0,106630,43229,3273,4350,5652,0,1,57,58,155,3172,229976,20985,34824,204208,526,114,225,195,9,7930,6919,60,38,48961,-1,10/01/2013,09/30/2014
AL,AL0078,2015,HARTSELLE - WILLIAM BRADFORD HUIE LIBRARY OF HARTSELLE,152 SPARKMAN STREET NW,HARTSELLE,35640,-86.934983,34.444159,1,103,MORGAN,119607,Y,CI,SO,ME,22954,22954,1,0,0,0,1,2,3,103036,22033,3000,3000,131069,68039,20653,88692,8000,3000,0,11000,31377,131069,0,0,0,0,0,0,27891,18217,497,4858,0,25,1,57,58,6,2184,21092,500,10169,27856,0,0,59,29,4,1273,932,200,8,16134,421,10/01/2013,09/30/2014
AL,AL0079,2015,LAWRENCE COUNTY PUBLIC LIBRARY,401 COLLEGE STREET,MOULTON,35650,-87.2944961,34.4758893,1,79,LAWRENCE,33477,Y,CO,SO,ME,31520,31520,1,0,0,0,1,2,3,72000,30256,9998,22850,135104,73019,3400,76419,15093,3000,743,18836,38707,133962,0,0,0,0,0,0,33685,15776,1541,4708,2431,25,1,57,58,0,2075,23268,2250,14348,36054,0,0,296,35,0,1800,351,0,17,8002,8002,10/01/2013,09/30/2014
AL,AL0080,2015,BALDWIN COUNTY LIBRARY COOPERATIVE,22251 PALMER STREET,ROBERTSDALE,36567,-87.716861,30.550709,1,3,BALDWIN,200111,Y,CO,MO,HQ,102376,102376,1,0,1,2,2,5,7,78561,101668,3751,14702,198682,112328,32182,144510,3354,0,0,3354,56650,204514,0,0,0,0,0,0,18944,7,1363,0,1383,0,0,57,57,2,3250,29730,3240,5286,31357,151,39,33,1,0,94,30,0,7,12779,689,10/01/2013,09/30/2014
AL,AL0081,2015,DAPHNE PUBLIC LIBRARY,2607 U.S. HIGHWAY 98,DAPHNE,36526,-87.905194,30.6181,1,3,BALDWIN,200111,Y,CI,SO,ME,22845,22845,1,0,0,4,6,7.3,13.3,783040,17819,20000,44362,865221,429960,181655,611615,56921,8706,37673,103300,156402,871317,0,0,0,0,0,0,59022,9695,4421,6363,6110,0,8,57,65,82,2547,263286,8309,23121,318303,185,87,362,210,96,7351,5615,1164,24,21880,3657,10/01/2013,09/30/2014
AL,AL0082,2015,FAIRHOPE PUBLIC LIBRARY,501 FAIRHOPE AVENUE,FAIRHOPE,36532,-87.9008897,30.5230526,1,3,BALDWIN,200111,Y,CI,SO,ME,16479,16479,1,0,0,2,5,9.39,14.39,670425,15818,2000,75112,763355,457069,61124,518193,56248,8722,37541,102511,94748,715452,0,0,0,0,0,0,71065,20801,5987,4872,5471,25,5,57,62,107,2704,208775,123894,20103,231295,181,35,869,173,82,22153,6944,1103,91,56475,49400,10/01/2013,09/30/2014
AL,AL0083,2015,FOLEY PUBLIC LIBRARY,319 EAST LAUREL AVENUE,FOLEY,36535,-87.6795864,30.4063657,1,3,BALDWIN,200111,Y,CI,SO,NO,15402,15402,1,0,0,1,1,14,15,814760,12362,0,3000,830122,473065,87079,560144,62362,22211,24000,108573,89627,758344,0,0,0,0,0,3785,80123,25062,7207,5200,6252,25,6,57,63,54,2912,593458,82905,23927,822237,387,73,615,160,155,18831,8500,3211,36,30194,9360,10/01/2013,09/30/2014
AL,AL0084,2015,BAY MINETTE PUBLIC LIBRARY,205 WEST SECOND STREET,BAY MINETTE,36507,-87.776059,30.8826155,1,3,BALDWIN,200111,Y,CI,SO,ME,8316,8316,1,0,0,1,7,0,7,288229,7982,7000,11218,314429,171225,66072,237297,40256,3265,6213,49734,44000,331031,0,0,0,0,0,0,43195,20801,4964,5231,3520,25,4,57,61,44,2600,78500,59849,11241,96224,218,128,110,84,0,3859,3561,0,11,20845,-1,10/01/2013,09/30/2014
AL,AL0085,2015,LOXLEY PUBLIC LIBRARY,1001 EAST LOXLEY AVENUE,LOXLEY,36551,-87.7529391,30.619925,1,3,BALDWIN,200111,Y,CI,SO,ME,1680,1680,1,0,0,0,1,1,2,37521,1616,0,500,39637, , , ,3000,450,1250,4700, ,42220,0,0,0,0,0,0,9542,40,213,30,743,0,0,57,57,0,1350,20000,6000,1289,8961,26,1,2,1,1,40,25,15,13,6000,0,10/01/2013,09/30/2014
AL,AL0086,2015,OSCAR JOHNSON MEMORIAL LIBRARY,21967 SIXTH STREET,SILVERHILL,36576,-87.7518658,30.5450831,1,3,BALDWIN,200111,Y,CI,SO,ME,729,729,1,0,0,0,1,0,1,4200,700,0,750,5650, , , ,400,0,300,700, ,4000,0,0,0,0,0,0,9421,0,393,0,913,0,0,57,57,0,780,3288,52,274,1418,19,0,1,1,0,112,112,0,5,250,700,10/01/2013,09/30/2014
AL,AL0087,2015,ROBERTSDALE PUBLIC LIBRARY,18301 PENNSYLVANIA STREET,ROBERTSDALE,36567,-87.7134011,30.552994,1,3,BALDWIN,200111,Y,CI,SO,NO,5547,5547,1,0,0,0,1,3,4,321482,4739,0,0,326221,167607,50280,217887,31517,0,8515,40032,19286,277205,0,0,0,0,0,0,30243,0,3138,0,1628,0,0,57,57,29,2624,70158,11103,8779,82190,103,6,102,102,0,2882,2654,0,13,46327,28028,10/01/2013,09/30/2014
AL,AL0088,2015,GULF SHORES - THOMAS B. NORTON PUBLIC LIBRARY,221 WEST 19TH AVENUE,GULF SHORES,36542,-87.6922688,30.2724838,1,3,BALDWIN,200111,Y,CI,SO,ME,10118,10118,1,0,0,3,7,3,10,544796,9712,0,15203,569711,336146,101658,437804,17660,13473,22065,53198,78709,569711,0,0,0,0,0,0,44728,20801,4879,4931,4182,25,9,57,66,56,2548,189267,13710,22348,95079,153,72,456,178,12,8787,5747,231,24,13161,-1,10/01/2013,09/30/2014
AL,AL0090,2015,ADAMSVILLE PUBLIC LIBRARY,4825 MAIN STREET,ADAMSVILLE,35005,-86.9532308,33.6001341,1,73,JEFFERSON,660793,Y,CI,SO,ME,4490,4490,1,0,0,0,1,1,2,82629,3016,0,14029,99674, , , ,3279,0,1150,4429, ,99674,0,0,0,0,0,0,14099,17636,485,8813,1080,0,2,57,59,0,2300,18929,3151,2714,15228,1570,4790,18,7,0,280,161,0,14,5017,0,10/01/2013,09/30/2014
AL,AL0091,2015,BESSEMER PUBLIC LIBRARY,400 19TH STREET N,BESSEMER,35020,-86.954919,33.403367,1,73,JEFFERSON,660793,Y,CI,SO,ME,27289,27289,1,0,0,3,5,11,16,788309,18329,0,5000,811638,364674,67850,432524,30246,1586,26051,57883,359590,849997,0,0,0,0,0,0,71246,17636,4155,3678,3061,0,1,57,58,65,2860,115615,69049,18238,54293,4820,8338,106,42,19,2780,1755,298,41,70912,20000,10/01/2013,09/30/2014
AL,AL0092,2015,MOUNTAIN BROOK - EMMET O'NEAL LIBRARY,50 OAK STREET,MOUNTAIN BROOK,35213,-86.756435,33.501479,1,73,JEFFERSON,660793,Y,CI,SO,ME,20369,20369,1,0,0,9,10,20,30,2391297,14092,0,63005,2468394,1420001,329969,1749970,192272,29983,117286,339541,754631,2844142,98415,0,0,0,98415,98415,122545,15692,6125,4846,7151,0,8,57,65,181,3250,200684,142698,13039,421005,21891,13250,960,781,43,42505,36280,2483,72,44115,-1,10/01/2013,09/30/2014
AL,AL0093,2015,FAIRFIELD - WALTER J. HANNA MEMORIAL LIBRARY,4615 GARY AVENUE,FAIRFIELD,35064,-86.915404,33.491112,1,73,JEFFERSON,660793,Y,CI,SO,ME,11029,11029,1,0,0,1,5,2,7,195999,7630,0,19863,223492,124480,2583,127063,4880,0,8855,13735,48416,189214,0,0,0,0,0,0,17461,17636,430,8827,1270,0,2,57,59,27,2496,7324,580,4127,9173,1464,1690,30,28,1,1010,882,75,16,9446,-1,10/01/2013,09/30/2014
AL,AL0094,2015,FULTONDALE PUBLIC LIBRARY,500 BYRD LANE,FULTONDALE,35068,0,0,1,73,JEFFERSON,660793,Y,CI,SO,ME,8570,8570,1,0,0,0,1,8,9,512230,5756,0,16000,533986,314980,59337,374317,20584,0,1707,22291,104517,501125,0,0,0,0,0,0,38564,17636,275,8827,5847,0,2,57,59,0,3342,40000,7500,3632,38564,6937,3331,8,8,0,812,812,0,23,15065,10000,10/01/2013,09/30/2014
AL,AL0095,2015,GARDENDALE - MARTHA MOORE PUBLIC LIBRARY,995 MT. OLIVE ROAD,GARDENDALE,35071,-86.818551,33.650038,1,73,JEFFERSON,660793,Y,CI,SO,ME,13849,13849,1,0,0,2,8,3.5,11.5,619157,9302,0,7041,635500,391688,111273,502961,18806,481,15003,34290,103068,640319,0,0,0,0,0,0,48276,17636,2112,8827,4593,0,2,57,59,41,2632,113833,12272,10428,121964,6713,16661,273,194,21,6912,5581,184,30,20415,0,10/01/2013,09/30/2014
AL,AL0096,2015,GRAYSVILLE PUBLIC LIBRARY,315 SOUTH MAIN STREET,GRAYSVILLE,35073,-86.973355,33.62657,1,73,JEFFERSON,660793,Y,CI,SO,ME,2148,2148,1,0,0,0,1,0.5,1.5,80000,1443,0,5033,86476, , , ,5775,0,828,6603, ,86574,0,0,0,0,0,0,13274,17636,368,8827,403,0,2,57,59,0,1992,9002,5099,1803,14627,1201,2323,8,4,0,280,280,0,6,2373,0,10/01/2013,09/30/2014
AL,AL0097,2015,HOMEWOOD PUBLIC LIBRARY,1721 OXMOOR ROAD,HOMEWOOD,35209,-86.795527,33.475485,1,73,JEFFERSON,660793,Y,CI,SO,ME,25262,25262,1,0,0,7.48,28.93,5.96,34.89,2257568,16967,0,26197,2300732,1326141,337163,1663304,127466,70394,66248,264108,269908,2197320,33536,0,0,0,33536,28724,76899,24284,9480,6344,18605,0,6,57,63,238,3250,425143,172408,23425,501177,37513,25831,469,229,23,22426,16432,708,127,58867,31029,10/01/2013,09/30/2014
AL,AL0098,2015,HOOVER PUBLIC LIBRARY,200 MUNICIPAL DRIVE,HOOVER,35216,-86.8059591,33.3878766,1,73,JEFFERSON,660793,Y,CI,SO,ME,83412,83412,1,0,0,20.9,32.56,38.38,70.94,6187764,56024,25994,250729,6520511,3488312,903383,4391695,333441,168640,170296,672377,1426856,6490928,460674,0,0,0,460674,460674,225249,22186,16892,13139,26173,0,9,57,66,259,3408,682488,56149,60345,1479073,61671,51209,1059,516,22,72425,50111,661,87,95948,-1,10/01/2013,09/30/2014
AL,AL0099,2015,HUEYTOWN PUBLIC LIBRARY,1372 HUEYTOWN ROAD,HUEYTOWN,35023,-86.996988,33.448032,1,73,JEFFERSON,660793,Y,CI,SO,ME,15991,15991,1,0,0,1,1,4.5,5.5,125951,10740,0,16917,153608,86843,0,86843,8588,776,790,10154,31839,128836,0,0,0,0,0,0,24019,17636,575,8827,620,0,2,57,59,0,2194,37497,4156,6755,46393,1393,4701,170,21,0,2757,1025,0,19,12565,0,10/01/2013,09/30/2014
AL,AL0100,2015,IRONDALE PUBLIC LIBRARY,105 SOUTH 20TH STREET,IRONDALE,35210,-86.706599,33.537758,1,73,JEFFERSON,660793,Y,CI,SO,ME,12426,12426,1,0,0,2,2,3.49,5.49,389483,8345,10000,27209,435037,197048,52515,249563,37449,10000,14539,61988,56630,368181,0,0,0,0,0,0,40685,17636,1054,8827,2035,0,2,57,59,73,2327,21952,5225,3922,57886,5157,7699,79,44,13,1947,1374,176,14,8219,1011,10/01/2013,09/30/2014
AL,AL0101,2015,LEEDS - JANE CULBRETH LIBRARY,8104 PARKWAY DRIVE,LEEDS,35094,-86.541708,33.543466,1,73,JEFFERSON,660793,Y,CI,SO,ME,11885,11885,1,0,0,2,5,2.1,7.1,437327,7983,0,20365,465675,271334,57393,328727,13830,0,6362,20192,108414,457333,0,0,0,0,0,0,30890,17636,1794,8827,3244,0,1,57,58,141,2304,46400,26900,4777,55118,5149,11048,230,114,15,7078,6079,400,9,24135,1460,10/01/2013,09/30/2014
AL,AL0102,2015,MIDFIELD PUBLIC LIBRARY,400 BRELAND DRIVE,MIDFIELD,35228,-86.9155953,33.4576713,1,73,JEFFERSON,660793,Y,CI,SO,ME,5323,5323,1,0,0,0,1,1.43,2.43,104174,3614,0,16406,124194,57756,7899,65655,7112,0,1787,8899,33321,107875,0,0,0,0,0,3609,15608,17636,331,8827,1255,0,2,57,59,21,1936,34085,4832,2321,16281,731,1558,19,7,6,857,650,102,10,11902,-1,10/01/2013,09/30/2014
AL,AL0103,2015,PLEASANT GROVE PUBLIC LIBRARY,501 PARK ROAD,PLEASANT GROVE,35127,-86.971744,33.49169,1,73,JEFFERSON,660793,Y,CI,SO,ME,10371,10371,1,0,0,0,2,0.5,2.5,158677,6966,0,16643,182286,64330,43311,107641,10873,0,4716,15589,37163,160393,0,0,0,0,0,0,23177,17636,977,8827,2119,0,2,57,59,30,2355,23124,2746,3622,34805,3120,4185,22,5,2,600,354,14,12,6425,-1,10/01/2013,09/30/2014
AL,AL0104,2015,TARRANT PUBLIC LIBRARY,1143 FORD AVENUE,TARRANT,35217,-86.76988,33.583108,1,73,JEFFERSON,660793,Y,CI,SO,ME,6340,6340,1,0,0,0,1,1,2,164097,4258,0,0,168355, , , ,7094,0,2098,9192, ,168355,0,0,0,0,0,0,31524,17636,116,8827,865,0,2,57,59,55,2237,24357,1745,2049,10624,1354,4275,50,17,2,723,527,23,9,8589,1780,10/01/2013,09/30/2014
AL,AL0105,2015,TRUSSVILLE PUBLIC LIBRARY,201 PARKWAY DRIVE,TRUSSVILLE,35173,-86.604764,33.626614,1,73,JEFFERSON,660793,Y,CI,SO,ME,20178,20178,1,0,0,4,5,10,15,1100326,13552,10000,76428,1200306,613802,202403,816205,107403,0,45737,153140,223627,1192972,0,0,0,0,0,0,68581,17636,4439,8827,8107,0,5,57,62,99,2935,292529,104271,14528,288219,15310,25050,208,114,58,8080,6790,762,36,20812,-1,10/01/2013,09/30/2014
AL,AL0106,2015,VESTAVIA HILLS LIBRARY IN THE FOREST,1221 MONTGOMERY HIGHWAY,VESTAVIA HILLS,35216,-86.788939,33.430399,1,73,JEFFERSON,660793,Y,CI,SO,ME,34090,34090,1,0,0,4,6,16,22,1739817,22897,0,123790,1886504,892793,223172,1115965,106968,14505,58527,180000,631399,1927364,105506,0,28580,0,134086,484104,88079,15781,7036,6568,12347,406,4,57,61,115,3281,396297,244042,14554,390302,28995,20376,555,338,146,26947,22394,1906,72,192000,13660560,10/01/2013,09/30/2014
AL,AL0107,2015,WARRIOR PUBLIC LIBRARY,101 FIRST STREET,WARRIOR,35180,-86.8079621,33.8133995,1,73,JEFFERSON,660793,Y,CI,SO,ME,3216,3216,1,0,0,1,2,0,2,109042,2160,0,16183,127385, , , ,7809,0,2748,10557, ,129206,0,0,0,0,0,0,27066,17636,404,8827,797,0,1,57,58,10,2450,23561,2450,2563,21552,1859,6133,14,12,0,859,534,0,7,4840,-1,10/01/2013,09/30/2014
AL,AL0108,2015,BIRMINGHAM PUBLIC LIBRARY,2100 PARK PLACE,BIRMINGHAM,35203,-86.807252,33.520858,1,73,JEFFERSON,660793,Y,CI,MO,ME,212038,212038,1,18,0,67.5,72.5,229,301.5,14619158,167847,75750,741281,15604036,9638442,2568337,12206779,526132,16903,353424,896459,1704953,14808191,0,0,0,0,0,0,699422,17217,33358,8879,43108,0,35,57,92,995,48984,2186746,682708,152740,1012776,148941,134541,2616,1062,304,60958,32695,3313,379,416757,204256,10/01/2013,09/30/2014
AL,AL0109,2015,FORT PAYNE - DEKALB COUNTY PUBLIC LIBRARY,504 GRAND AVENUE NW,FORT PAYNE,35967,-85.7202819,34.4448893,1,49,DEKALB,71065,Y,MJ,MO,HQ,58308,58308,1,0,1,1,3.8,0,3.8,207295,68229,0,43044,318568,140894,40498,181392,23917,6600,8441,38958,92111,312461,0,0,0,0,0,0,86119,76808,2126,4903,1257,25,3,57,60,27,2494,40263,59108,18319,76353,7,6,67,53,0,1594,1316,0,10,13001,-1,10/01/2013,09/30/2014
AL,AL0110,2015,COLLINSVILLE PUBLIC LIBRARY,151 MAIN STREET,COLLINSVILLE,35961,-85.85884,34.262949,1,49,DEKALB,71065,Y,CI,SO,ME,1979,1979,1,0,0,0,1,1,2,59841,1900,3200,13151,78092, , , ,1898,162,57,2117, ,76548,5000,0,0,5000,10000,28872,8548,8021,116,0,843,0,0,57,57,3,1552,8886,700,973,4553,0,52,164,21,4,1338,443,102,15,6037,5200,10/01/2013,09/30/2014
AL,AL0111,2015,GERALDINE PUBLIC LIBRARY,13543 ALABAMA HIGHWAY 227,GERALDINE,35974,-86.000527,34.351313,1,49,DEKALB,71065,Y,CI,SO,ME,900,900,1,0,0,0,2,0,2,32424,705,3800,7044,43973, , , ,4205,112,688,5005, ,25376,0,0,0,0,0,2275,43020,0,1172,0,1507,0,0,57,57,0,1768,9900,2002,1647,12005,1,1,32,9,9,1036,107,207,19,4185,3600,10/01/2013,09/30/2014
AL,AL0112,2015,RAINSVILLE PUBLIC LIBRARY,941 EAST MAIN STREET,RAINSVILLE,35986,-85.8291084,34.4866702,1,49,DEKALB,71065,Y,CI,SO,ME,4978,4978,1,0,0,1,4,0,4,196017,4778,1250,16850,218895,94042,51901,145943,15565,189,2133,17887,40855,204685,0,0,0,0,0,0,55572,20801,1905,5231,1961,25,1,57,58,16,2538,28710,2000,14665,115812,1,2,149,148,0,3960,3955,0,14,7023,250,10/01/2013,09/30/2014
AL,AL0113,2015,ESCAMBIA COUNTY COOPERATIVE LIBRARY SYSTEM,700 EAST CHURCH STREET,ATMORE,36502,-87.4857384,31.0226245,1,53,ESCAMBIA,37733,N,CO,SO,HQ,21099,21099,1,0,0,0,1.5,0,1.5,25000,20238,3000,3306,51544, , , ,2454,1000,0,3454, ,50851,0,0,0,0,0,0,6809,20285,19,4872,22,25,0,57,57,5,1820,0,300,378,4323,1548,0,0,0,0,0,0,0,24,17745,-1,10/01/2013,09/30/2014
AL,AL0114,2015,ATMORE PUBLIC,700 E. CHURCH STREET,ATMORE,36502,-87.4857384,31.0226245,1,53,ESCAMBIA,37733,Y,CI,SO,ME,10121,10121,1,0,0,0,5,0.3,5.3,263251,9705,7023,32994,312973,166936,57972,224908,25267,0,6716,31983,69255,326146,0,0,0,0,0,0,50721,20285,863,4872,948,25,2,57,59,35,2548,36244,14957,10798,49561,0,0,106,60,17,2226,1190,201,32,13261,936,10/01/2013,09/30/2014
AL,AL0115,2015,BREWTON PUBLIC LIBRARY,206 WEST JACKSON STREET,BREWTON,36426,-87.070251,31.1202492,1,53,ESCAMBIA,37733,Y,CI,SO,ME,5347,5347,1,0,0,0,1,11,12,303936,5176,0,65914,375026,227136,124431,351567,38886,0,18702,57588,69193,478348,0,0,0,13500,13500,10915,51691,15005,2425,0,5084,0,5,57,62,63,2427,62015,13482,18954,117857,5,18,331,98,6,2995,1773,105,30,18468,355,10/01/2013,09/30/2014
AL,AL0116,2015,FLOMATON PUBLIC LIBRARY,436 HOUSTON STREET,FLOMATON,36441,-87.2622884,31.0017558,1,53,ESCAMBIA,37733,Y,CI,SO,ME,1427,1427,1,0,0,0,2,1.2,3.2,126522,1381,7000,19957,154860,67832,23142,90974,15757,0,1878,17635,41225,149834,0,0,0,0,0,0,26503,20285,1379,5200,346,25,1,57,58,23,2450,45643,93061,7145,131999,0,0,15,12,0,837,487,0,18,25826,17268,10/01/2013,09/30/2014
AL,AL0117,2015,GADSDEN - ETOWAH COUNTY PUBLIC LIBRARY,254 COLLEGE STREET,GADSDEN,35901,-86.00984,34.012704,1,55,ETOWAH,103531,Y,MJ,MO,HQ,68234,68234,1,2,0,4,4,32,36,1264008,65498,8000,0,1337506,705629,400391,1106020,65204,6959,4842,77005,99958,1282983,0,0,0,0,0,0,99389,18217,2446,4903,4549,25,6,57,63,54,6728,65987,5290,36581,180225,212,488,689,223,154,19990,13911,2132,40,32661,0,10/01/2013,09/30/2014
AL,AL0118,2015,ATTALLA - ETOWAH COUNTY PUBLIC LIBRARY,604 NORTH 4TH STREET,ATTALLA,35954,-86.0879371,34.0238057,1,55,ETOWAH,103531,Y,CI,SO,ME,6010,6010,1,0,0,0,1,2,3,135013,5769,0,2524,143306,82998,23860,106858,4153,0,2577,6730,29717,143305,0,0,0,0,0,0,25243,20801,127,4903,31,25,0,57,57,0,2392,9000,1600,6755,10312,0,0,15,3,0,443,334,0,10,5438,950,10/01/2013,09/30/2014
AL,AL0119,2015,RAINBOW CITY PUBLIC LIBRARY,3702 RAINBOW DRIVE,RAINBOW CITY,35906,-86.046756,33.950372,1,55,ETOWAH,103531,Y,CI,SO,ME,9666,9666,1,0,0,1.6,1.6,5.2,6.8,375392,9278,0,0,384670,176605,74521,251126,43827,10331,8227,62385,71159,384670,4975,0,0,0,4975,4975,54447,20727,3141,4872,2192,25,3,57,60,64,2756,73154,7992,14204,94350,101,2,140,90,0,3867,3471,0,13,9124,-1,10/01/2013,09/30/2014
AL,AL0121,2015,DEMOPOLIS PUBLIC LIBRARY,211 E. WASHINGTON STREET,DEMOPOLIS,36732,-87.8362042,32.5173396,1,91,MARENGO,20110,Y,CC,SO,HQ,7292,7292,1,0,0,3,5,2,7,292054,4528,0,15460,312042,160612,43048,203660,29281,2435,3770,35486,86900,326046,0,0,0,0,0,0,26566,1476,1764,16,1912,0,2,57,59,36,2068,89300,23515,10917,53808,120,99,97,61,1,2516,2141,7,21,14110,42840,10/01/2013,09/30/2014
AL,AL0122,2015,MARENGO COUNTY PUBLIC LIBRARY,210 NORTH SHILOH STREET,LINDEN,36748,-87.7964092,32.3073678,1,91,MARENGO,20110,Y,CO,SO,ME,2055,2055,1,0,0,0,1,1,2,60522,5623,0,10755,76900, , , ,9083,0,691,9774, ,74673,0,0,0,0,0,0,8744,0,281,0,114,0,0,57,57,0,1720,16091,1281,2158,10164,0,0,23,7,0,527,392,0,15,7084,-1,10/01/2013,09/30/2014
AL,AL0123,2015,MARSHALL COUNTY COOPERATIVE LIBRARY,600 COLLEGE STREET SUITE 100,ALBERTVILLE,35950,-86.2102182,34.2572669,1,95,MARSHALL,94636,Y,CO,SO,ME,46115,46115,0,0,1,1,1,1,2,16368,44261,0,2000,62629, , , ,20949,0,0,20949, ,60630,0,0,0,0,0,0,13495,0,381,0,0,0,0,57,57,0,1550,4674,23000,1180,22260,0,0,0,0,0,0,0,0,0,0,-1,10/01/2013,09/30/2014
AL,AL0124,2015,ARAB PUBLIC LIBRARY,325 2ND STREET NW,ARAB,35016,-86.4969444,34.3203564,1,95,MARSHALL,94636,Y,CI,SO,ME,8237,8237,1,0,0,0,1,6,7,219201,7907,0,12900,240008,131500,41058,172558,20838,3000,7969,31807,35643,240008,0,0,0,0,0,0,53399,20801,2220,4903,2805,25,0,57,57,49,2210,24963,1068,16374,52818,0,16,69,52,0,1608,984,0,24,11331,11050,10/01/2013,09/30/2014
AL,AL0125,2015,BOAZ PUBLIC LIBRARY,404 THOMAS AVE.,BOAZ,35957,-86.1618496,34.2007876,1,95,MARSHALL,94636,Y,CI,SO,ME,9653,9653,1,0,0,0,1,5.25,6.25,311948,9267,0,12500,333715,132076,46482,178558,23000,3000,1129,27129,99262,304949,10000,0,0,0,10000,10122,51584,20801,1662,5231,3310,25,2,57,59,71,2799,62700,28404,15308,120487,0,4,118,99,0,6703,6404,0,18,17857,1438,10/01/2013,09/30/2014
AL,AL0126,2015,GUNTERSVILLE PUBLIC LIBRARY,1240 O'BRIG AVENUE,GUNTERSVILLE,35976,-86.3021338,34.349128,1,95,MARSHALL,94636,Y,CI,SO,ME,8343,8343,1,0,0,3,3,8,11,328799,6508,5000,28000,368307,203281,53108,256389,27521,2159,9453,39133,42409,337931,10000,0,0,0,10000,10000,42463,4458,1699,2337,3655,62,8,57,65,82,2236,63754,33651,12234,130222,58,75,365,83,20,5744,2585,92,12,15832,5600,10/01/2013,09/30/2014
AL,AL0127,2015,ALBERTVILLE PUBLIC LIBRARY,200 JACKSON STREET,ALBERTVILLE,35950,-86.2030013,34.2644447,1,95,MARSHALL,94636,Y,CI,SO,ME,21516,21516,1,0,0,0,1,6,7,253329,16782,0,19696,289807,119452,66308,185760,24808,3995,24201,53004,41448,280212,0,0,0,0,0,13420,82216,20285,1788,5200,3524,25,1,57,58,0,2180,30000,2581,26233,85015,0,0,47,43,2,918,787,56,13,13873,15600,10/01/2013,09/30/2014
AL,AL0128,2015,HARRISON REGIONAL LIBRARY SYSTEM,50 LESTER STREET,COLUMBIANA,35051,-86.6076137,33.1853806,1,117,SHELBY,206655,Y,CO,MO,HQ,44292,44292,1,2,0,1.25,5.25,2.58,7.83,325000,44912,20000,5000,394912,216775,61838,278613,15855,38647,14592,69094,120019,467726,0,0,0,0,0,0,31259,20801,2232,4943,2578,25,8,57,65,15,4113,38420,2062,1824,69503,6580,3009,188,2,0,1714,400,0,10,1704,2190,10/01/2013,09/30/2014
AL,AL0129,2015,ALABASTER - ALBERT L. SCOTT LIBRARY,100 9TH STREET N.W.,ALABASTER,35007,-86.8266374,33.2443077,1,117,SHELBY,206655,Y,CI,SO,ME,30991,30991,1,0,0,4,5,4.75,9.75,749638,29748,10000,0,789386,439309,121234,560543,80155,5100,26746,112001,116842,789386,0,0,0,0,0,0,47910,21187,2344,5269,5267,25,8,57,65,116,3049,127438,17416,15847,186410,10924,9772,332,207,19,7285,6213,243,8,13117,17108,10/01/2013,09/30/2014
AL,AL0130,2015,CALERA PUBLIC LIBRARY,9700 HIGHWAY 25,CALERA,35040,-86.76927,33.0969663,1,117,SHELBY,206655,Y,CI,SO,ME,12472,12472,1,0,0,0,4,2,6,332196,11875,0,0,344071,186996,26500,213496,20000,0,8000,28000,38301,279797,0,0,0,0,0,0,39650,23330,2764,4827,2764,0,7,57,64,0,3146,45000,3720,9262,94266,74,130,127,90,12,5698,5012,122,12,9089,-1,10/01/2013,09/30/2014
AL,AL0131,2015,COLUMBIANA PUBLIC LIBRARY,50 LESTER STREET,COLUMBIANA,35051,-86.6076137,33.1853806,1,117,SHELBY,206655,Y,CI,SO,ME,4203,4203,1,0,0,1,1,5,6,231050,4034,9375,15310,259769,105000,27020,132020,21220,500,16461,38181,51650,221851,0,0,0,0,0,0,29638,56474,1131,5943,1727,25,7,57,64,11,2600,45240,14325,5947,99124,6896,3507,197,75,14,4866,2419,200,9,7733,3650,10/01/2013,09/30/2014
AL,AL0132,2015,HELENA - JANE B. HOLMES PUBLIC LIBRARY,230 TUCKER ROAD,HELENA,35080,-86.8425123,33.2898063,1,117,SHELBY,206655,Y,CI,SO,ME,17209,17209,1,0,0,0,1,3,4,217563,12625,0,20147,250335,143327,42921,186248,10595,250,12448,23293,44068,253609,0,0,0,0,0,0,25763,20801,3225,4314.21957671958,7052,0,7,57,64,36,2232,30370,25814,7862,162904,31,32,177,89,22,3898,2702,130,13,6808,-1,10/01/2013,09/30/2014
AL,AL0133,2015,VINCENT - LALLOUISE F. MCGRAW LIBRARY,42860 HIGHWAY 25,VINCENT,35178,-86.4168041,33.4052714,1,117,SHELBY,206655,Y,CI,SO,ME,2038,2038,1,0,0,0,1,0,1,43094,1597,0,0,44691, , , ,2995,0,821,3816, ,44663,0,0,0,0,0,0,10852,21073,652,4185,743,25,7,57,64,0,1560,6050,15,1166,49199,596,482,38,30,2,630,580,20,13,6513,2000,10/01/2013,09/30/2014
AL,AL0134,2015,MONTEVALLO - PARNELL MEMORIAL LIBRARY,277 PARK DRIVE,MONTEVALLO,35115,-86.8448327,33.0938698,1,117,SHELBY,206655,Y,CI,SO,ME,6452,6452,1,0,0,1,8,0,8,166000,6193,3000,23370,198563,91356,6263,97619,7754,250,5647,13651,85120,196390,0,0,0,0,0,7251,25587,20801,888,4872,2711,0,7,57,64,7,2161,39050,6760,5569,97525,3271,3170,311,193,33,5015,4142,212,25,9874,360,10/01/2013,09/30/2014
AL,AL0135,2015,PELHAM PUBLIC LIBRARY,3160 PELHAM PARKWAY,PELHAM,35124,-86.8108402,33.2879651,1,117,SHELBY,206655,Y,CI,SO,ME,22012,22012,1,0,0,6,11,3.5,14.5,1023895,20987,20000,19970,1084852,668202,192428,860630,43893,6397,17575,67865,156357,1084852,0,0,0,0,0,0,48088,20801,4030,4858,7362,2361,2,57,59,40,2968,133323,20576,14388,423575,12857,11918,334,230,37,10432,8619,776,28,15553,2690,10/01/2013,09/30/2014
AL,AL0136,2015,WILSONVILLE - VERNICE STOUDENMIRE LIBRARY,9905 NORTH MAIN STREET,WILSONVILLE,35186,-86.4841584,33.2360487,1,117,SHELBY,206655,Y,CI,SO,ME,1929,1929,1,0,0,1,1,0,1,28362,1625,0,750,30737, , , ,3480,50,1841,5371, ,26763,0,0,0,0,0,0,7494,23075,307,5231,523,25,7,57,64,0,1571,6203,52,420,31383,739,736,68,24,20,184,48,40,6,1058,52,10/01/2013,09/30/2014
AL,AL0137,2015,NORTH SHELBY LIBRARY,5521 CAHABA VALLEY ROAD,BIRMINGHAM,35242,-86.7170245,33.3650849,1,117,SHELBY,206655,Y,CI,MA,ME,48542,48542,1,1,0,7,9,6,15,1081274,40891,16000,0,1138165,414226,73839,488065,24397,7712,11453,43562,606538,1138165,0,0,0,0,0,12679,67816,20801,3791,4903,6394,0,2,57,59,35,4366,180000,18025,21667,275211,65,119,597,411,109,11299,9160,1599,15,8503,9912,10/01/2013,09/30/2014
AL,AL0140,2015,ALICEVILLE PUBLIC LIBRARY,416 THIRD AVENUE NE,ALICEVILLE,35442,-88.1478147,33.1293647,1,107,PICKENS,20365,Y,CI,SO,ME,2432,2432,1,0,0,0,1,2,3,55000,2590,0,18598,76188,50050,0,50050,2629,0,0,2629,22718,75397,0,0,0,0,0,0,21773,0,707,0,944,0,0,57,57,0,1600,12050,163,3329,9774,555,12,81,81,0,1077,1077,0,28,4595,-1,10/01/2013,09/30/2014
AL,AL0141,2015,CARROLLTON PUBLIC LIBRARY,225 COMMERCE AVENUE,CARROLLTON,35447,-88.094376,33.2570984,1,107,PICKENS,20365,Y,CI,SO,ME,1006,1006,1,0,0,0,0.75,0.07,0.82,20229,1473,7000,6791,35493, , , ,7979,0,4132,12111, ,35978,0,0,0,0,0,0,18281,0,350,0,1054,0,0,57,57,0,1311,7425,5666,3597,9844,29,29,40,19,0,518,348,0,28,4565,1000,10/01/2013,09/30/2014
AL,AL0142,2015,GORDO - RUTH HOLLIMAN MEMORIAL PUBLIC LIBRARY,287 MAIN STREET SOUTH,GORDO,35466,-87.9030931,33.318245,1,107,PICKENS,20365,Y,CI,SO,ME,1720,1720,1,0,0,0,0.78,0,0.78,27225,1347,670,4185,33427, , , ,6036,0,40,6076, ,35900,0,0,0,2012,2012,2012,14584,0,92,0,982,0,0,57,57,0,1441,9429,603,3508,11488,12,41,59,50,0,1107,1059,0,13,2849,2849,10/01/2013,09/30/2014
AL,AL0143,2015,REFORM PUBLIC LIBRARY,302 FIRST STREET SOUTH,REFORM,35481,-88.0159554,33.3767418,1,107,PICKENS,20365,Y,CI,SO,ME,1675,1675,1,0,0,0,1,0,1,36332,1997,0,995,39324, , , ,1997,0,0,1997, ,32230,0,0,0,0,0,2500,16026,0,195,0,609,0,0,57,57,0,1616,16500,14500,3539,10900,125,25,12,4,0,108,60,0,8,9000,50,10/01/2013,09/30/2014
AL,AL0144,2015,ST. CLAIR COUNTY LIBRARY,139 5TH AVENUE,ASHVILLE,35953,-86.252813,33.8372552,1,115,ST. CLAIR,86697,Y,CO,SO,HQ,25120,25120,1,0,0,1,1,1.8,2.8,91798,32848,10000,9526,144172,57915,38377,96292,19143,3000,7636,29779,17527,143598,0,0,0,0,0,0,15342,20285,615,4872,1259,25,0,57,57,19,2080,7596,2936,2257,12912,0,235,0,0,0,0,0,0,5,2095,-1,10/01/2013,09/30/2014
AL,AL0145,2015,ASHVILLE PUBLIC LIBRARY,196 SIXTH AVENUE,ASHVILLE,35953,-86.2538416,33.836515,1,115,ST. CLAIR,86697,Y,CI,SO,ME,2234,2234,1,0,0,0,0.75,0,0.75,35873,2033,7000,3225,48131, , , ,7047,0,2427,9474, ,48549,0,0,0,0,0,0,16974,0,1,0,1013,0,0,57,57,5,1560,3712,69,3218,3518,0,0,53,9,0,583,375,0,5,466,-1,10/01/2013,09/30/2014
AL,AL0146,2015,MOODY - DORIS STANLEY MEMORIAL LIBRARY,1515 BOOKMARK LANE,MOODY,35004,-86.485362,33.59037,1,115,ST. CLAIR,86697,Y,CI,SO,ME,18430,18430,1,0,0,0,3,0,3,124839,17691,322,2459,145311,75766,26487,102253,11540,5408,6808,23756,16539,142548,550,0,0,0,550,550,20921,20518,787,5200,1230,25,4,57,61,32,2080,18438,534,6694,26663,0,0,219,47,0,3275,2610,0,12,6244,-1,10/01/2013,09/30/2014
AL,AL0147,2015,ODENVILLE PUBLIC LIBRARY,200 ALABAMA STREET,ODENVILLE,35120,-86.396313,33.6829026,1,115,ST. CLAIR,86697,Y,CI,SO,ME,10922,10922,1,0,0,0,2,0,2,83040,10484,8176,604,102304, , , ,5896,3000,10689,19585, ,105601,0,0,0,0,0,0,17415,27330,254,640,696,25,1,57,58,7,1832,20648,5831,2605,23259,0,0,52,4,0,657,90,0,15,3214,7696,10/01/2013,09/30/2014
AL,AL0148,2015,PELL CITY PUBLIC LIBRARY,1923 1ST AVENUE NORTH,PELL CITY,35125,-86.2860134,33.5871996,1,115,ST. CLAIR,86697,Y,CI,SO,ME,21665,21665,1,0,0,1,4,3,7,343046,20796,0,5000,368842,194208,70737,264945,23975,9480,5521,38976,61421,365342,0,0,0,0,0,0,34630,6645,1621,3080,1722,0,3,57,60,19,2652,58625,6102,15288,77658,68,984,119,37,19,4800,2050,290,15,33000,2400,10/01/2013,09/30/2014
AL,AL0151,2015,YORK - HIGHTOWER MEMORIAL LIBRARY,602 2ND AVENUE,YORK,36925,-88.2963388,32.4864668,1,119,SUMTER,13166,Y,CI,SO,ME,6215,6215,1,0,0,0,1,0,1,27538,3603,0,1989,33130, , , ,4994,0,0,4994, ,29276,0,0,0,0,0,0,13026,0,96,0,145,0,0,57,57,11,1145,4616,200,1535,1871,0,0,4,4,0,32,32,0,8,1933,0,10/01/2013,09/30/2014
AL,AL0152,2015,LIVINGSTON - RUBY PICKENS TARTT PUBLIC LIBRARY,206 MONROE ST.,LIVINGSTON,35470,-88.1893487,32.5843336,1,119,SUMTER,13166,Y,CI,SO,ME,7212,7212,1,0,0,1,2,1.5,3.5,165386,9687,3500,13325,191898,111982,24096,136078,17457,5704,4285,27446,27215,190739,0,0,0,0,0,0,33786,1476,1134,3100,327,0,0,57,57,33,2257,14004,996,3099,26462,0,35,39,39,0,600,600,0,8,2144,655,10/01/2013,09/30/2014
AL,AL0154,2015,ANNISTON - CALHOUN COUNTY PUBLIC LIBRARY,108 EAST 10TH STREET,ANNISTON,36201,-85.8282323,33.6571016,1,15,CALHOUN,115916,Y,MJ,MO,HQ,76866,76866,1,1,1,3,9,10.5,19.5,682700,73766,10000,192812,959278,588764,39393,628157,38178,4000,24703,66881,203825,898863,0,0,0,0,0,0,102406,20689,1813,5209,2628,25,1,57,58,75,5113,105960,68742,25273,191280,145,142,456,200,37,19655,12329,1372,76,79860,5672,10/01/2013,09/30/2014
AL,AL0155,2015,JACKSONVILLE PUBLIC LIBRARY,200 PELHAM ROAD SOUTH,JACKSONVILLE,36265,-85.761294,33.812728,1,15,CALHOUN,115916,Y,CI,SO,ME,12430,12430,1,0,0,1,7.33,1.45,8.78,519825,11931,0,13741,545497,290814,50276,341090,49848,3000,38875,91723,93323,526136,0,0,0,0,0,0,55239,19222,382,4872,1868,0,0,57,57,67,2496,76699,653,12734,85912,117,28,150,124,3,9814,9429,63,50,10010,234,10/01/2013,09/30/2014
AL,AL0156,2015,PIEDMONT PUBLIC LIBRARY,106 NORTH MAIN STREET,PIEDMONT,36272,-85.6135761,33.9234694,1,15,CALHOUN,115916,Y,CI,SO,ME,4799,4799,1,0,0,0,1,2,3,79666,4624,7905,4713,96908,37250,13766,51016,8754,1500,15905,26159,18650,95825,0,0,0,0,0,0,14727,20801,994,5231,792,25,0,57,57,18,2132,35000,25100,2605,34462,4,15,89,54,0,1062,837,0,11,4500,1000,10/01/2013,09/30/2014
AL,AL0157,2015,AKRON PUBLIC LIBRARY,207 FIRST AVENUE SOUTH,AKRON,35441,-87.735677,32.877488,1,65,HALE,15184,Y,CI,SO,NO,1971,1971,1,0,0,0,0.68,0,0.68,5740,1891,0,0,7631, , , ,285,0,0,285, ,8373,0,0,0,0,0,0,3350,0,0,0,0,0,0,57,57,0,1536,200,60,81,970,0,0,4,2,2,64,40,20,6,250,0,10/01/2013,09/30/2014
AL,AL0158,2015,DOTHAN HOUSTON COUNTY LIBRARY SYSTEM,445 NORTH OATES STREET,DOTHAN,36303,0,0,1,69,HOUSTON,104193,Y,MJ,MO,NO,103402,103402,1,3,1,4,11.5,7,18.5,894069,99255,2000,121386,1116710,613980,125659,739639,110680,26239,20732,157651,308552,1205842,650000,0,0,1275574,1925574,2646613,109900,57808,4306,5353,4664,25,15,57,72,160,8684,813221,622,84806,306531,67,50,748,243,161,9900,5943,508,152,43555,-1,10/01/2013,09/30/2014
AL,AL0159,2015,BLOUNTSVILLE PUBLIC LIBRARY,65 CHESTNUT STREET,BLOUNTSVILLE,35031,-86.5899637,34.0789393,1,9,BLOUNT,57719,Y,CI,SO,ME,14067,14067,1,0,0,0,1,2,3,103127,13503,0,7000,123630,74000,19000,93000,11020,0,0,11020,12000,116020,0,0,0,0,0,0,7550,0,200,0,155,0,57,57,114,48,2000,22000,1250,7720,33669,6,0,93,45,10,805,505,100,11,4000,495,10/01/2013,09/30/2014
AL,AL0160,2015,CHEROKEE PUBLIC LIBRARY,118 CHURCH STREET,CHEROKEE,35616,-87.9722003,34.7564856,1,33,COLBERT,54543,Y,MJ,SO,NO,5415,5415,1,0,0,0,2,0,2,11800,5198,0,1000,17998, , , ,1500,150,440,2090, ,16987,0,0,0,0,0,0,21023,0,654,0,452,0,69,57,126,25,1300,6310,137,2049,9912,0,0,57,32,18,318,250,47,9,2500,832,10/01/2013,09/30/2014
AL,AL0161,2015,BRENT - CENTREVILLE PUBLIC LIBRARY,20 LIBRARY STREET,CENTREVILLE,35042,-87.14828,32.9482,1,7,BIBB,22506,Y,MJ,SO,NO,18893,18893,1,0,0,0,1,2,3,42960,18135,0,10174,71269,38551,0,38551,3540,0,0,3540,17985,60076,0,0,0,0,0,0,20637,0,476,0,672,0,0,57,57,2,1976,52761,3823,4550,20588,0,0,19,4,3,170,60,15,17,11324,1300,10/01/2013,09/30/2014
AL,AL0162,2015,CHILTON - CLANTON PUBLIC LIBRARY,100 FIRST AVENUE,CLANTON,35045,-86.6244927,32.8407531,1,21,CHILTON,43931,Y,MJ,MO,NO,43819,43819,1,2,0,0,1,5,6,160040,42062,0,27590,229692,124234,24026,148260,15423,0,4900,20323,60055,228638,0,0,0,0,0,0,76849,0,1232,0,2139,0,0,57,57,3,5720,52817,460,9028,42198,15,8,80,64,4,1145,1001,15,19,13710,1249,10/01/2013,09/30/2014
AL,AL0163,2015,CHOCTAW COUNTY PUBLIC LIBRARY,124 NORTH ACADEMY AVENUE,BUTLER,36904,-88.2200745,32.090181,1,23,CHOCTAW,13323,Y,MJ,MO,NO,13633,13633,1,2,0,0,1.75,1.92,3.67,8583,13086,0,6840,28509,74484,1371,75855,12624,0,35,12659,31208,119722,0,0,0,0,0,0,80636,0,4131,0,6475,0,0,57,57,29,3809,17929,3232,7424,20597,0,0,27,18,0,665,513,0,16,3205,80,10/01/2013,09/30/2014
AL,AL0164,2015,CITRONELLE MEMORIAL LIBRARY,7855 STATE STREET,CITRONELLE,36522,-88.2292,31.09093,1,97,MOBILE,415123,Y,CI,SO,NO,3886,3886,1,0,0,0,4,0,4,101036,3730,0,686,105452,40740,0,40740,9685,0,1143,10828,53685,105253,0,0,0,0,0,0,29123,0,45,0,0,0,0,57,57,25,1560,9595,1000,811,7240,0,0,3,3,0,240,240,0,17,3160,35,10/01/2013,09/30/2014
AL,AL0165,2015,GROVE HILL PUBLIC LIBRARY,108 DUBOSE AVENUE,GROVE HILL,36451,-87.7750514,31.7053424,1,25,CLARKE,24945,Y,CI,SO,NO,6344,6344,1,0,0,0,1,0.6,1.6,42107,6090,0,16058,64255, , , ,2628,4508,1317,8453, ,60437,0,0,0,0,0,0,13337,850,153,121,339,0,0,57,57,42,2001,8672,492,6855,4387,0,0,4,3,0,304,194,0,8,4742,52,10/01/2013,09/30/2014
AL,AL0166,2015,HUNTSVILLE - MADISON COUNTY PUBLIC LIBRARY,915 MONROE STREET,HUNTSVILLE,35801,-86.5902804,34.7233808,1,89,MADISON,350299,Y,MJ,MO,NO,343080,343080,1,11,0,25,34.1,73.55,107.65,4701476,329321,85000,861488,5977285,3134916,546335,3681251,330552,184946,253208,768706,1321665,5771622,150000,0,75000,0,225000,225000,436105,5768,40899,2506,75207,62,16,57,73,555,29257,1194422,316543,168522,2334464,625,522,4454,2808,312,116373,64327,5642,352,195169,-1,10/01/2013,09/30/2014
AL,AL0167,2015,EUTAW - JAMES C. POOLE JR. MEMORIAL LIBRARY,420 PRAIRIE AVENUE,EUTAW,35462,-87.8878201,32.842769,1,63,GREENE,8553,Y,CO,SO,NO,8876,8876,1,0,0,0,1,1,2,35540,8520,0,6582,50642, , , ,6720,0,0,6720, ,63316,0,0,0,0,0,0,16008,0,143,0,165,0,0,57,57,30,1849,19620,19106,2852,8530,0,0,84,30,21,626,247,58,20,13543,410,10/01/2013,09/30/2014
AL,AL0168,2015,GREENVILLE - BUTLER COUNTY PUBLIC LIBRARY,309 FORT DALE STREET,GREENVILLE,36037,-86.6261633,31.8319039,1,13,BUTLER,20296,Y,MJ,SO,NO,20307,20307,1,0,0,0,3,0.4,3.4,191407,19493,0,25914,236814,103644,13914,117558,11833,3000,5053,19886,39586,177030,0,0,0,0,0,0,41694,23428,2332,0,1847,0,6,57,63,25,2432,53000,13004,18686,28158,0,0,132,29,5,1877,1135,150,18,15104,-1,10/01/2013,09/30/2014
AL,AL0169,2015,HALE COUNTY LIBRARY,1103 MAIN STREET,GREENSBORO,36744,-87.5922125,32.7040712,1,65,HALE,15184,Y,MJ,SO,NO,7316,7316,1,0,0,0,1.4,0,1.4,11000,7023,3000,35774,56797, , , ,3559,3015,0,6574, ,43101,0,0,0,5000,5000,6127,17835,50,483,0,360,0,0,57,57,20,1601,12935,5959,5744,5959,1,5,33,18,1,513,353,10,12,6976,1050,10/01/2013,09/30/2014
AL,AL0170,2015,CHICKASAW - INA PULLEN SMALLWOOD MEMORIAL LIBRARY,224 GRANT STREET,CHICKASAW,36611,-88.0783898,30.7649243,1,97,MOBILE,415123,Y,CI,SO,NO,6023,6023,1,0,0,0,1,1,2,42450,5781,0,4369,52600, , , ,3863,0,886,4749, ,27595,0,0,0,0,0,0,29900,0,71,0,2695,0,3,57,60,49,1820,4982,2049,3723,3261,0,0,7,7,0,150,150,0,9,2049,0,10/01/2013,09/30/2014
AL,AL0171,2015,JACKSON - WHITE SMITH MEMORIAL LIBRARY,213 COLLEGE AVENUE,JACKSON,36545,-87.8937061,31.5123009,1,25,CLARKE,24945,Y,CI,SO,NO,9899,9899,1,0,0,0,1,3,4,173210,9502,3000,13613,199325,102141,29586,131727,13962,0,294,14256,41940,187923,0,0,0,0,0,0,21232,0,834,0,1265,0,410,57,467,13,2092,16192,5343,10103,15028,0,54,124,93,24,1954,1516,213,23,8710,420,10/01/2013,09/30/2014
AL,AL0172,2015,MARION - PERRY COUNTY PUBLIC LIBRARY,202 WASHINGTON STREET,MARION,36756,-87.3190838,32.6342635,1,105,PERRY,9826,Y,MJ,SO,NO,6518,6518,1,0,0,0,2,2,4,31039,6257,0,2369,39665,19539,0,19539,1444,0,0,1444,15223,36206,0,0,0,0,0,1335,15337,0,457,0,1082,0,0,57,57,2,1253,8651,4300,3698,4139,0,6,20,17,0,598,402,0,13,4650,2246,10/01/2013,09/30/2014
AL,AL0173,2015,WOODVILLE PUBLIC LIBRARY,26 VENSON STREET,WOODVILLE,35776,-86.2747007,34.6272358,1,71,JACKSON,52665,Y,CI,SO,NO,743,743,1,0,0,0,1,0,1,22597,3856,0,3308,29761, , , ,3856,0,0,3856, ,31204,0,0,0,0,0,0,24192,0,41,0,341,0,0,57,57,23,1560,3855,61,3335,12826,0,0,44,44,0,950,820,0,10,1360,0,10/01/2013,09/30/2014
AL,AL0174,2015,CITY OF BAYOU LA BATRE PUBLIC LIBRARY,12747 PADGETT SWITCH ROAD,IRVINGTON,36544,-88.2416029,30.4252008,1,97,MOBILE,415123,Y,CI,SO,NO,2659,2659,1,0,0,0,1,0.5,1.5,33205,2552,0,746,36503, , , ,6204,0,0,6204, ,31783,0,0,0,0,0,0,19062,0,0,0,0,0,0,57,57,0,2080,12462,823,6474,19110,0,0,11,4,3,509,420,47,7,5625,0,10/01/2013,09/30/2014
AL,AL0175,2015,SCOTTSBORO PUBLIC LIBRARY,1002 SOUTH BROAD STREET,SCOTTSBORO,35768,-86.0351652,34.6577986,1,71,JACKSON,52665,Y,MJ,SO,NO,44265,44265,1,0,0,0,1,5,6,140700,26981,0,56599,224280,119125,30955,150080,15627,0,9262,24889,34641,209610,0,0,0,20260,20260,20260,82935,27218,2897,0,334,0,1,57,58,10,2496,106367,1867,7423,49490,36,35,90,25,15,2231,1831,300,10,10264,100,10/01/2013,09/30/2014
AL,AL0176,2015,ONEONTA PUBLIC LIBRARY,221 SECOND STREET SOUTH,ONEONTA,35121,-86.4756872,33.944598,1,9,BLOUNT,57719,Y,MJ,SO,HQ,43759,43759,1,0,0,2,5,2,7,279000,42004,8180,29655,358839,175337,54249,229586,20325,19233,9441,48999,53308,331893,0,0,8180,0,8180,19500,38463,11889,2482,2353,2777,63,7,57,64,37,2265,71147,9548,19784,100622,5,123,263,53,58,4187,955,440,24,6935,4932,10/01/2013,09/30/2014
AL,AL0177,2015,THOMASVILLE PUBLIC LIBRARY,1401 MOSLEY DRIVE,THOMASVILLE,36784,-87.7370527,31.9320968,1,25,CLARKE,24945,Y,CI,SO,NO,8918,8918,1,0,0,1,4.4,0,4.4,181672,8560,19416,23333,232981,111854,32333,144187,19711,11338,1351,32400,66101,242688,7355,0,0,0,7355,7355,15496,1649,682,17,1148,0,1,57,58,37,2496,46884,15892,6255,39733,0,26,542,81,10,4050,1899,128,27,11934,18371,10/01/2013,09/30/2014
AL,AL0178,2015,MACON COUNTY - TUSKEGEE PUBLIC LIBRARY,302 SOUTH MAIN STREET,TUSKEGEE,36083,-85.689088,32.4219418,1,87,MACON,19425,Y,MJ,SO,NO,20535,20535,1,0,0,1,1,3,4,170000,19711,0,4475,194186,88761,17819,106580,10700,0,6950,17650,10050,134280,9000,0,0,0,9000,0,10478,0,1154,0,1032,0,0,57,57,0,2280,25121,12719,9213,16240,4,8,43,27,5,1523,1103,94,34,19954,-1,10/01/2013,09/30/2014
AL,AL0179,2015,MOUNDVILLE PUBLIC LIBRARY,279 MARKET STREET,MOUNDVILLE,35474,0,0,1,65,HALE,15184,Y,CI,SO,NO,6101,6101,1,0,0,0,1,1,2,107325,5856,1000,350,114531, , , ,3500,0,700,4200, ,50800,0,0,0,0,0,0,13738,0,6,0,359,0,0,57,57,5,2820,13507,936,2847,12438,0,0,35,9,6,356,201,35,17,7600,832,10/01/2013,09/30/2014
AL,AL0180,2015,UNIONTOWN PUBLIC LIBRARY,108 WATER STREET,UNIONTOWN,36786,-87.513613,32.449444,1,105,PERRY,9826,Y,CI,SO,NO,3663,3663,1,0,0,0,1,1,2,20640,3516,1500,1500,27156, , , ,3620,0,60,3680, ,24570,0,0,0,0,0,0,10765,0,130,0,122,0,0,57,57,0,2100,4314,350,4705,5118,0,0,33,28,2,468,366,30,19,421,2500,10/01/2013,09/30/2014
AL,AL0181,2015,PRICHARD PUBLIC LIBRARY,300 WEST LOVEJOY LOOP,PRICHARD,36610,-88.0839418,30.7322332,1,97,MOBILE,415123,Y,CI,MO,NO,22416,22416,1,1,0,0,5,6,11,129218,21517,0,9913,160648,130015,5253,135268,845,0,7733,8578,11005,154851,0,0,0,0,0,0,68425,50,1376,0,1180,0,3,57,60,24,3020,28798,80915,26836,23804,0,0,740,325,265,10934,2451,3703,16,12157,468,10/01/2013,09/30/2014
AL,AL0182,2015,WASHINGTON COUNTY PUBLIC LIBRARY,14102 ST. STEPHENS AVENUE,CHATOM,36518,-88.2090227,31.4529431,1,129,WASHINGTON,16834,Y,CO,MO,NO,17109,17109,1,1,1,1,1,7,8,124914,16423,10000,241724,393061,220664,46962,267626,6968,7203,4465,18636,160087,446349,5000,0,0,12500,17500,28425,82812,41070,2154,9245,669,25,3,57,60,20,3746,34994,9972,8393,20830,104,198,330,138,20,9667,4101,1388,35,15931,3720,10/01/2013,09/30/2014
AL,AL0184,2015,EVERGREEN PUBLIC LIBRARY,119 CEMETERY AVENUE,EVERGREEN,36401,-86.949201,31.433966,1,35,CONECUH,12670,Y,MJ,SO,NO,12981,12981,1,0,0,0,1,5,6,158443,12460,0,20075,190978,108434,0,108434,9120,0,5414,14534,34874,157842,0,0,0,0,0,0,35997,0,1408,0,1270,0,0,57,57,7,2236,13259,255,7399,35096,0,0,12,5,5,230,70,120,19,8629,0,10/01/2013,09/30/2014
AL,AL0186,2015,MOBILE PUBLIC LIBRARY,701 GOVERNMENT STREET,MOBILE,36602,-88.050915,30.6871,1,97,MOBILE,415123,Y,MJ,MO,NO,371257,371257,1,8,1,25,29,105,134,8085802,431367,0,1101214,9618383,4277743,1826404,6104147,703985,141000,395806,1240791,2273445,9618383,0,0,70072,0,70072,70072,585342,8026,68738,5965,68738,0,22,57,79,527,22040,1447113,345509,196872,1702092,593,832,3202,1411,921,73119,38931,22256,404,413823,85312,10/01/2013,09/30/2014
AL,AL0187,2015,MONTGOMERY CITY-COUNTY PUBLIC LIBRARY,245 HIGH STREET,MONTGOMERY,36104,-86.3054022,32.3718816,1,101,MONTGOMERY,226189,Y,MJ,MO,NO,230149,230149,1,10,0,15,27,36,63,4385062,220919,135000,265075,5006056,2481906,750089,3231995,542279,51712,0,593991,292282,4118268,0,0,0,0,0,0,528038,37908,20124,6653,8933,3520,29,57,86,730,27535,861359,89616,186624,562252,691,782,2179,867,209,45931,24741,2730,177,408401,150800,10/01/2013,09/30/2014
AL,AL0188,2015,WHITE HALL PUBLIC LIBRARY,640 FREEDOM ROAD,WHITE HALL,36040,-86.7126351,32.3015646,1,85,LOWNDES,10580,Y,CI,SO,NO,2327,2327,1,0,0,1,2,0,2,0,2234,0,0,2234, , , ,431,230,0,661, ,2408,0,0,0,0,0,0,12146,0,368,0,217,0,0,57,57,4,1040,220,8,774,216,0,0,1,1,0,24,24,0,7,151,0,10/01/2013,09/30/2014
AL,AL0189,2015,STEVENSON PUBLIC LIBRARY,102 WEST MAIN STREET,STEVENSON,35772,-85.8362172,34.8704105,1,71,JACKSON,52665,Y,CI,SO,NO,2027,2027,1,0,0,0,1,0.5,1.5,38504,5089,0,1834,45427, , , ,5964,0,600,6564, ,44679,0,0,0,0,0,0,12152,0,0,0,928,0,0,57,57,0,1221,12000,1500,3837,7191,0,0,20,13,5,316,182,112,10,5100,5200,10/01/2013,09/30/2014
AL,AL0190,2015,KILLEN PUBLIC LIBRARY,325 J. C. MAULDIN HIGHWAY,KILLEN,35645,-87.5417043,34.8590241,1,77,LAUDERDALE,93096,Y,CI,SO,ME,989,989,1,0,0,0,2,1,3,58495,10063,0,2000,70558,37031,2100,39131,14031,0,0,14031,16100,69262,0,0,0,0,0,0,24684,24,448,0,589,0,0,57,57,0,2320,26292,7321,3907,22313,0,0,45,45,0,746,746,0,19,5043,1755,10/01/2013,09/30/2014
AL,AL0191,2015,LEXINGTON - BURCHELL CAMPBELL MEMORIAL LIBRARY,11075 HIGHWAY 101,LEXINGTON,35648,-87.3711971,34.968624,1,77,LAUDERDALE,93096,Y,CI,SO,ME,731,731,1,0,0,0,1,1,2,23767,5030,7000,42,35839, , , ,15091,0,3279,18370, ,41596,0,0,0,0,0,0,16697,0,278,0,222,0,0,57,57,0,1508,23400,7280,2365,7367,0,0,6,6,0,231,231,0,14,3897,4125,10/01/2013,09/30/2014
AL,AL0192,2015,AUTAUGA - PRATTVILLE PUBLIC LIBRARY,254 DOSTER STREET,PRATTVILLE,36067,-86.4688389,32.45694,1,1,AUTAUGA,55395,Y,MJ,MO,NO,55514,55514,1,3,0,4,5,12,17,445000,53288,11800,50913,561001,299426,71860,371286,54701,7950,14059,76710,147791,595787,0,0,0,0,0,0,78651,19222,1930,4872,1298,26,2,57,59,79,5044,157132,58555,20824,151468,71,41,293,207,31,4477,3684,313,39,130428,12347,10/01/2013,09/30/2014
AL,AL0193,2015,FAYETTE COUNTY MEMORIAL LIBRARY,326 TEMPLE AVENUE NORTH,FAYETTE,35555,-87.8307842,33.6874936,1,57,FAYETTE,16874,Y,CO,SO,NO,16983,16983,1,0,0,1,1,1.73,2.73,29503,16302,0,128564,174369,65303,9354,74657,14687,3000,4243,21930,72559,169146,0,0,0,0,0,20535,30844,20081,6470,4903,7284,25,0,57,57,26,2324,36001,3685,10339,37037,0,0,32,32,0,1010,1010,0,6,3746,-1,10/01/2013,09/30/2014
AL,AL0194,2015,PHENIX CITY - RUSSELL COUNTY PUBLIC LIBRARY,1501 17TH AVENUE,PHENIX CITY,36867,-85.0160214,32.4749617,1,113,RUSSELL,59608,Y,MJ,SO,NO,57820,57820,1,0,0,0,1,7.5,8.5,254914,55501,0,62688,373103,192265,66549,258814,20166,0,9834,30000,85331,374145,0,0,0,0,0,0,46182,0,576,0,3157,0,0,57,57,40,2661,135446,9411,47212,84415,14,14,555,317,31,12268,8154,247,33,50351,1459,10/01/2013,09/30/2014
AL,AL0195,2015,SELMA - DALLAS COUNTY PUBLIC LIBRARY,1103 SELMA AVENUE,SELMA,36703,-87.0204842,32.4090206,1,47,DALLAS,41711,Y,MJ,SO,NO,42864,42864,1,0,0,1,4,14,18,324784,41145,25810,169080,560819,266699,58718,325417,27500,3000,9662,40162,194772,560351,0,0,0,0,0,0,81144,20801,1014,5228,1446,25,2,57,59,32,2557,153326,42180,32830,67452,63,62,346,179,38,10968,9037,565,46,52019,-1,10/01/2013,09/30/2014
AL,AL0196,2015,TUSCALOOSA PUBLIC LIBRARY,1801 JACK WARNER PARKWAY,TUSCALOOSA,35401,-87.562204,33.216299,1,125,TUSCALOOSA,202212,Y,MJ,MO,NO,198596,198596,1,2,2,15,15,45,60,3427888,190631,44556,309668,3972743,1742325,504102,2246427,247944,147879,148996,544819,828199,3619445,44556,0,0,42000,86556,86542,159015,7339,11273,4510,20013,386,10,70,80,287,7856,429693,81020,84552,771255,455,620,664,393,180,14211,11808,1564,101,203118,438000,10/01/2013,09/30/2014
AL,AL0197,2015,WILCOX COUNTY LIBRARY,100 BROAD STREET,CAMDEN,36726,-87.2890637,31.9904584,1,131,WILCOX,11098,Y,CO,MO,NO,11431,11431,1,2,0,0,2,1.5,3.5,136034,10973,0,2116,149123,66486,29999,96485,7293,312,1096,8701,30898,136084,0,0,0,0,0,0,47002,50,1211,0,521,0,6,57,63,34,4200,7411,3881,8302,19561,0,0,82,41,4,742,466,39,25,6020,308,10/01/2013,09/30/2014
AL,AL0198,2015,MONROE COUNTY PUBLIC LIBRARY,121 PINEVILLE ROAD,MONROEVILLE,36460,-87.3243597,31.5279756,1,99,MONROE,21947,Y,CO,SO,NO,22602,22602,1,0,0,0,2,0.37,2.37,72107,21696,0,47730,141533,84065,17136,101201,19875,0,0,19875,45288,166364,0,0,0,0,0,0,26190,0,1294,0,593,0,0,57,57,0,2040,56401,7145,20218,69739,0,0,109,70,0,8551,6901,0,10,32949,12,10/01/2013,09/30/2014
AL,AL0199,2015,CULLMAN COUNTY PUBLIC LIBRARY,200 CLARK STREET NE,CULLMAN,35055,-86.8426587,34.1791174,1,43,CULLMAN,81289,Y,MJ,MO,HQ,80440,80440,1,4,1,2,3,10.53,13.53,421732,77214,4790,32838,536574,263947,70729,334676,37794,6299,14712,58805,133581,527062,8152,0,0,0,8152,8152,81091,23424,4016,6281,12315,25,3,57,60,72,8646,102615,1136,32543,189071,627,56,320,173,0,4088,3265,0,40,29594,-1,10/01/2013,09/30/2014
AL,AL0200,2015,VALLEY - H. GRADY BRADSHAW / CHAMBERS COUNTY LIBRARY,3419 20TH AVENUE,VALLEY,36854,-85.1776664,32.838742,1,17,CHAMBERS,34076,Y,CO,MO,NO,34064,34064,1,1,0,1,2,10.25,12.25,75114,32697,0,682212,790023,395245,82085,477330,30555,4230,2269,37054,303077,817461,0,0,0,0,0,43021,104627,2500,2019,1300,6250,0,5,57,62,20,3597,202610,20417,26708,93673,17,51,346,172,18,14448,10229,194,19,27318,-1,10/01/2013,09/30/2014
